CVE_ENT,NOM_ENT,NOM_ABR,CVE_MUN,NOM_MUN,LAT_DEC,LON_DEC
1,Aguascalientes,Ags.,1,Aguascalientes,21.879823,-102.296047
1,Aguascalientes,Ags.,2,Asientos,22.238317,-102.089275
1,Aguascalientes,Ags.,3,Calvillo,21.846907,-102.718751
1,Aguascalientes,Ags.,4,Cosío,22.366409,-102.300044
1,Aguascalientes,Ags.,5,Jesús María,21.961273,-102.343416
1,Aguascalientes,Ags.,6,Pabellón de Arteaga,22.149202,-102.276542
1,Aguascalientes,Ags.,7,Rincón de Romos,22.229233,-102.323069
1,Aguascalientes,Ags.,8,San José de Gracia,22.150216,-102.415634
1,Aguascalientes,Ags.,9,Tepezalá,22.224228,-102.166971
1,Aguascalientes,Ags.,10,El Llano,21.918869,-101.965307
1,Aguascalientes,Ags.,11,San Francisco de los Romo,22.072393,-102.272678
2,Baja California,BC,1,Ensenada,31.808944,-116.595134
2,Baja California,BC,2,Mexicali,32.641176,-115.475579
2,Baja California,BC,3,Tecate,32.572679,-116.62655
2,Baja California,BC,4,Tijuana,32.532461,-117.018913
2,Baja California,BC,5,Playas de Rosarito,32.363684,-117.054459
3,Baja California Sur,BCS,1,Comondú,25.034434,-111.673218
3,Baja California Sur,BCS,2,Mulegé,27.336868,-112.268275
3,Baja California Sur,BCS,3,La Paz,24.142222,-110.310833
3,Baja California Sur,BCS,8,Los Cabos,23.061591,-109.694749
3,Baja California Sur,BCS,9,Loreto,26.012778,-111.343333
4,Campeche,Camp.,1,Calkiní,20.371226,-90.050739
4,Campeche,Camp.,2,Campeche,19.844814,-90.539649
4,Campeche,Camp.,3,Carmen,18.637789,-91.83645
4,Campeche,Camp.,4,Champotón,19.356219,-90.723891
4,Campeche,Camp.,5,Hecelchakán,20.176966,-90.134517
4,Campeche,Camp.,6,Hopelchén,19.745548,-89.845044
4,Campeche,Camp.,7,Palizada,18.253598,-92.090902
4,Campeche,Camp.,8,Tenabo,20.039677,-90.225763
4,Campeche,Camp.,9,Escárcega,18.604315,-90.732001
4,Campeche,Camp.,10,Calakmul,18.505371,-89.397276
4,Campeche,Camp.,11,Candelaria,18.183451,-91.046294
5,Coahuila de Zaragoza,Coah.,1,Abasolo,27.181944,-101.426389
5,Coahuila de Zaragoza,Coah.,2,Acuña,29.330006,-100.978258
5,Coahuila de Zaragoza,Coah.,3,Allende,28.347222,-100.854167
5,Coahuila de Zaragoza,Coah.,4,Arteaga,25.450621,-100.849623
5,Coahuila de Zaragoza,Coah.,5,Candela,26.840278,-100.663889
5,Coahuila de Zaragoza,Coah.,6,Castaños,26.785278,-101.430556
5,Coahuila de Zaragoza,Coah.,7,Cuatro Ciénegas,26.985833,-102.066667
5,Coahuila de Zaragoza,Coah.,8,Escobedo,27.234722,-101.4125
5,Coahuila de Zaragoza,Coah.,9,Francisco I. Madero,25.775,-103.273056
5,Coahuila de Zaragoza,Coah.,10,Frontera,26.926111,-101.449444
5,Coahuila de Zaragoza,Coah.,11,General Cepeda,25.379908,-101.479292
5,Coahuila de Zaragoza,Coah.,12,Guerrero,28.308418,-100.378726
5,Coahuila de Zaragoza,Coah.,13,Hidalgo,27.791681,-99.876055
5,Coahuila de Zaragoza,Coah.,14,Jiménez,29.070308,-100.674228
5,Coahuila de Zaragoza,Coah.,15,Juárez,27.606506,-100.72712
5,Coahuila de Zaragoza,Coah.,16,Lamadrid,27.048494,-101.793599
5,Coahuila de Zaragoza,Coah.,17,Matamoros,25.528136,-103.230384
5,Coahuila de Zaragoza,Coah.,18,Monclova,26.901242,-101.417224
5,Coahuila de Zaragoza,Coah.,19,Morelos,28.410104,-100.886631
5,Coahuila de Zaragoza,Coah.,20,Múzquiz,27.87755,-101.516518
5,Coahuila de Zaragoza,Coah.,21,Nadadores,27.029031,-101.592023
5,Coahuila de Zaragoza,Coah.,22,Nava,28.421875,-100.767554
5,Coahuila de Zaragoza,Coah.,23,Ocampo,27.311215,-102.397405
5,Coahuila de Zaragoza,Coah.,24,Parras,25.437381,-102.184169
5,Coahuila de Zaragoza,Coah.,25,Piedras Negras,28.708093,-100.528441
5,Coahuila de Zaragoza,Coah.,26,Progreso,27.428978,-100.987233
5,Coahuila de Zaragoza,Coah.,27,Ramos Arizpe,25.543234,-100.950782
5,Coahuila de Zaragoza,Coah.,28,Sabinas,27.848888,-101.119989
5,Coahuila de Zaragoza,Coah.,29,Sacramento,27.004439,-101.725036
5,Coahuila de Zaragoza,Coah.,30,Saltillo,25.421665,-100.999721
5,Coahuila de Zaragoza,Coah.,31,San Buenaventura,27.060257,-101.550029
5,Coahuila de Zaragoza,Coah.,32,San Juan de Sabinas,27.92939,-101.303293
5,Coahuila de Zaragoza,Coah.,33,San Pedro,25.757778,-102.983157
5,Coahuila de Zaragoza,Coah.,34,Sierra Mojada,27.286877,-103.701457
5,Coahuila de Zaragoza,Coah.,35,Torreón,25.541753,-103.453061
5,Coahuila de Zaragoza,Coah.,36,Viesca,25.343605,-102.80635
5,Coahuila de Zaragoza,Coah.,37,Villa Unión,28.220498,-100.725155
5,Coahuila de Zaragoza,Coah.,38,Zaragoza,28.487043,-100.917622
6,Colima,Col.,1,Armería,18.937073,-103.964997
6,Colima,Col.,2,Colima,19.242922,-103.728119
6,Colima,Col.,3,Comala,19.323199,-103.758801
6,Colima,Col.,4,Coquimatlán,19.200979,-103.810541
6,Colima,Col.,5,Cuauhtémoc,19.328774,-103.601861
6,Colima,Col.,6,Ixtlahuacán,19.001184,-103.738593
6,Colima,Col.,7,Manzanillo,19.053206,-104.316381
6,Colima,Col.,8,Minatitlán,19.38611,-104.049637
6,Colima,Col.,9,Tecomán,18.910503,-103.873548
6,Colima,Col.,10,Villa de Álvarez,19.264776,-103.736759
7,Chiapas,Chis.,1,Acacoyagua,15.340965,-92.674617
7,Chiapas,Chis.,2,Acala,16.551674,-92.807508
7,Chiapas,Chis.,3,Acapetahua,15.282838,-92.689132
7,Chiapas,Chis.,4,Altamirano,16.73592,-92.038594
7,Chiapas,Chis.,5,Amatán,17.372848,-92.819123
7,Chiapas,Chis.,6,Amatenango de la Frontera,15.435011,-92.115158
7,Chiapas,Chis.,7,Amatenango del Valle,16.528501,-92.435491
7,Chiapas,Chis.,8,Angel Albino Corzo,15.872644,-92.72508
7,Chiapas,Chis.,9,Arriaga,16.236065,-93.899473
7,Chiapas,Chis.,10,Bejucal de Ocampo,15.455393,-92.158407
7,Chiapas,Chis.,11,Bella Vista,15.582928,-92.244765
7,Chiapas,Chis.,12,Berriozábal,16.800321,-93.273271
7,Chiapas,Chis.,13,Bochil,16.996383,-92.890219
7,Chiapas,Chis.,14,El Bosque,17.06221,-92.721409
7,Chiapas,Chis.,15,Cacahoatán,14.989789,-92.16811
7,Chiapas,Chis.,16,Catazajá,17.728321,-92.016366
7,Chiapas,Chis.,17,Cintalapa,16.698682,-93.720428
7,Chiapas,Chis.,18,Coapilla,17.130791,-93.159022
7,Chiapas,Chis.,19,Comitán de Domínguez,16.252461,-92.135835
7,Chiapas,Chis.,20,La Concordia,16.116716,-92.687934
7,Chiapas,Chis.,21,Copainalá,17.093611,-93.210556
7,Chiapas,Chis.,22,Chalchihuitán,16.963405,-92.618395
7,Chiapas,Chis.,23,Chamula,16.7875,-92.689167
7,Chiapas,Chis.,24,Chanal,16.660062,-92.259942
7,Chiapas,Chis.,25,Chapultenango,17.340401,-93.130078
7,Chiapas,Chis.,26,Chenalhó,16.894277,-92.626148
7,Chiapas,Chis.,27,Chiapa de Corzo,16.707958,-93.015959
7,Chiapas,Chis.,28,Chiapilla,16.570493,-92.720025
7,Chiapas,Chis.,29,Chicoasén,16.967255,-93.105235
7,Chiapas,Chis.,30,Chicomuselo,15.744936,-92.283287
7,Chiapas,Chis.,31,Chilón,17.105491,-92.271528
7,Chiapas,Chis.,32,Escuintla,15.319269,-92.658558
7,Chiapas,Chis.,34,Frontera Comalapa,15.660164,-92.14105
7,Chiapas,Chis.,35,Frontera Hidalgo,14.777838,-92.175983
7,Chiapas,Chis.,36,La Grandeza,15.51013,-92.22588
7,Chiapas,Chis.,37,Huehuetán,15.01852,-92.384181
7,Chiapas,Chis.,38,Huixtán,16.712151,-92.454597
7,Chiapas,Chis.,39,Huitiupán,17.173232,-92.685932
7,Chiapas,Chis.,40,Huixtla,15.138028,-92.466011
7,Chiapas,Chis.,41,La Independencia,16.253935,-92.023452
7,Chiapas,Chis.,42,Ixhuatán,17.293271,-93.008382
7,Chiapas,Chis.,43,Ixtacomitán,17.430751,-93.096559
7,Chiapas,Chis.,44,Ixtapa,16.803525,-92.905903
7,Chiapas,Chis.,45,Ixtapangajoya,17.497539,-93.001666
7,Chiapas,Chis.,46,Jiquipilas,16.667721,-93.650475
7,Chiapas,Chis.,47,Jitotol,17.067968,-92.862336
7,Chiapas,Chis.,48,Juárez,17.608151,-93.193331
7,Chiapas,Chis.,49,Larráinzar,16.884446,-92.713258
7,Chiapas,Chis.,50,La Libertad,17.690136,-91.719062
7,Chiapas,Chis.,51,Mapastepec,15.441134,-92.891606
7,Chiapas,Chis.,52,Las Margaritas,16.315947,-91.981568
7,Chiapas,Chis.,53,Mazapa de Madero,15.387966,-92.187735
7,Chiapas,Chis.,54,Mazatán,14.863025,-92.449471
7,Chiapas,Chis.,55,Metapa,14.837314,-92.190945
7,Chiapas,Chis.,56,Mitontic,16.864471,-92.629651
7,Chiapas,Chis.,57,Motozintla,15.363167,-92.247744
7,Chiapas,Chis.,58,Nicolás Ruíz,16.437073,-92.585347
7,Chiapas,Chis.,59,Ocosingo,16.908038,-92.095827
7,Chiapas,Chis.,60,Ocotepec,17.225029,-93.164405
7,Chiapas,Chis.,61,Ocozocoautla de Espinosa,16.761462,-93.375653
7,Chiapas,Chis.,62,Ostuacán,17.405591,-93.337136
7,Chiapas,Chis.,63,Osumacinta,16.935467,-93.091337
7,Chiapas,Chis.,64,Oxchuc,16.786489,-92.343349
7,Chiapas,Chis.,65,Palenque,17.509133,-91.981033
7,Chiapas,Chis.,66,Pantelhó,17.006659,-92.46958
7,Chiapas,Chis.,67,Pantepec,17.188092,-93.049546
7,Chiapas,Chis.,68,Pichucalco,17.508551,-93.117768
7,Chiapas,Chis.,69,Pijijiapan,15.691674,-93.209317
7,Chiapas,Chis.,70,El Porvenir,15.456367,-92.27964
7,Chiapas,Chis.,71,Villa Comaltitlán,15.211938,-92.576024
7,Chiapas,Chis.,72,Pueblo Nuevo Solistahuacán,17.157568,-92.897322
7,Chiapas,Chis.,73,Rayón,17.200503,-93.011217
7,Chiapas,Chis.,74,Reforma,17.865812,-93.147108
7,Chiapas,Chis.,75,Las Rosas,16.364132,-92.369581
7,Chiapas,Chis.,76,Sabanilla,17.283484,-92.55172
7,Chiapas,Chis.,77,Salto de Agua,17.557021,-92.333422
7,Chiapas,Chis.,78,San Cristóbal de las Casas,16.737022,-92.637564
7,Chiapas,Chis.,79,San Fernando,16.871712,-93.206285
7,Chiapas,Chis.,80,Siltepec,15.557185,-92.32286
7,Chiapas,Chis.,81,Simojovel,17.140826,-92.715208
7,Chiapas,Chis.,82,Sitalá,17.025051,-92.307743
7,Chiapas,Chis.,83,Socoltenango,16.242949,-92.350316
7,Chiapas,Chis.,84,Solosuchiapa,17.428656,-93.031179
7,Chiapas,Chis.,85,Soyaló,16.890993,-92.92529
7,Chiapas,Chis.,86,Suchiapa,16.621958,-93.104794
7,Chiapas,Chis.,87,Suchiate,14.679452,-92.150942
7,Chiapas,Chis.,88,Sunuapa,17.489378,-93.243169
7,Chiapas,Chis.,89,Tapachula,14.911071,-92.26432
7,Chiapas,Chis.,90,Tapalapa,17.190048,-93.104605
7,Chiapas,Chis.,91,Tapilula,17.248403,-93.016258
7,Chiapas,Chis.,92,Tecpatán,17.136478,-93.311165
7,Chiapas,Chis.,93,Tenejapa,16.819017,-92.506492
7,Chiapas,Chis.,94,Teopisca,16.541514,-92.472597
7,Chiapas,Chis.,96,Tila,17.300635,-92.425865
7,Chiapas,Chis.,97,Tonalá,16.091356,-93.751783
7,Chiapas,Chis.,98,Totolapa,16.544733,-92.680376
7,Chiapas,Chis.,99,La Trinitaria,16.119059,-92.050469
7,Chiapas,Chis.,100,Tumbalá,17.278463,-92.315988
7,Chiapas,Chis.,101,Tuxtla Gutiérrez,16.753972,-93.115192
7,Chiapas,Chis.,102,Tuxtla Chico,14.94019,-92.16897
7,Chiapas,Chis.,103,Tuzantán,15.146063,-92.421621
7,Chiapas,Chis.,104,Tzimol,16.184231,-92.187937
7,Chiapas,Chis.,105,Unión Juárez,15.060656,-92.081888
7,Chiapas,Chis.,106,Venustiano Carranza,16.339617,-92.565135
7,Chiapas,Chis.,107,Villa Corzo,16.184751,-93.267684
7,Chiapas,Chis.,108,Villaflores,16.235486,-93.267708
7,Chiapas,Chis.,109,Yajalón,17.17391,-92.333944
7,Chiapas,Chis.,110,San Lucas,16.611637,-92.719342
7,Chiapas,Chis.,111,Zinacantán,16.760119,-92.723581
7,Chiapas,Chis.,112,San Juan Cancuc,16.892243,-92.371953
7,Chiapas,Chis.,113,Aldama,16.917818,-92.688192
7,Chiapas,Chis.,114,Benemérito de las Américas,16.515828,-90.653302
7,Chiapas,Chis.,115,Maravilla Tenejapa,16.140397,-91.295104
7,Chiapas,Chis.,116,Marqués de Comillas,16.333133,-90.765283
7,Chiapas,Chis.,117,Montecristo de Guerrero,15.693918,-92.61926
7,Chiapas,Chis.,118,San Andrés Duraznal,17.131998,-92.804988
7,Chiapas,Chis.,119,Santiago el Pinar,16.941438,-92.714596
8,Chihuahua,Chih.,1,Ahumada,30.617734,-106.512415
8,Chihuahua,Chih.,2,Aldama,28.838381,-105.911293
8,Chihuahua,Chih.,3,Allende,26.939426,-105.395077
8,Chihuahua,Chih.,4,Aquiles Serdán,28.594503,-105.887474
8,Chihuahua,Chih.,5,Ascensión,31.092176,-107.995949
8,Chihuahua,Chih.,6,Bachíniva,28.764943,-107.253622
8,Chihuahua,Chih.,7,Balleza,26.954108,-106.346923
8,Chihuahua,Chih.,8,Batopilas,27.026652,-107.73971
8,Chihuahua,Chih.,9,Bocoyna,27.840743,-107.589253
8,Chihuahua,Chih.,10,Buenaventura,29.843371,-107.471314
8,Chihuahua,Chih.,11,Camargo,27.694963,-105.17162
8,Chihuahua,Chih.,12,Carichí,27.916532,-107.05681
8,Chihuahua,Chih.,13,Casas Grandes,30.375704,-107.948805
8,Chihuahua,Chih.,14,Coronado,26.737615,-105.158312
8,Chihuahua,Chih.,15,Coyame del Sotol,29.462043,-105.094358
8,Chihuahua,Chih.,16,La Cruz,27.863889,-105.196389
8,Chihuahua,Chih.,17,Cuauhtémoc,28.406312,-106.866044
8,Chihuahua,Chih.,18,Cusihuiriachi,28.241111,-106.836667
8,Chihuahua,Chih.,19,Chihuahua,28.636794,-106.076307
8,Chihuahua,Chih.,20,Chínipas,27.39281,-108.536229
8,Chihuahua,Chih.,21,Delicias,28.193333,-105.471111
8,Chihuahua,Chih.,22,Dr. Belisario Domínguez,28.154667,-106.47703
8,Chihuahua,Chih.,23,Galeana,30.112949,-107.616744
8,Chihuahua,Chih.,24,Santa Isabel,28.343346,-106.368054
8,Chihuahua,Chih.,25,Gómez Farías,29.357019,-107.738655
8,Chihuahua,Chih.,26,Gran Morelos,28.247824,-106.510123
8,Chihuahua,Chih.,27,Guachochi,26.819153,-107.069362
8,Chihuahua,Chih.,28,Guadalupe,31.390107,-106.101754
8,Chihuahua,Chih.,29,Guadalupe y Calvo,26.094516,-106.964369
8,Chihuahua,Chih.,30,Guazapares,27.276382,-108.279956
8,Chihuahua,Chih.,31,Guerrero,28.548193,-107.486924
8,Chihuahua,Chih.,32,Hidalgo del Parral,26.922088,-105.667143
8,Chihuahua,Chih.,33,Huejotitán,27.05467,-106.179456
8,Chihuahua,Chih.,34,Ignacio Zaragoza,29.643212,-107.764195
8,Chihuahua,Chih.,35,Janos,30.887258,-108.18985
8,Chihuahua,Chih.,36,Jiménez,27.130549,-104.922977
8,Chihuahua,Chih.,37,Juárez,31.746465,-106.485019
8,Chihuahua,Chih.,38,Julimes,28.423056,-105.430556
8,Chihuahua,Chih.,39,López,27.0025,-105.033056
8,Chihuahua,Chih.,40,Madera,29.19,-108.141389
8,Chihuahua,Chih.,41,Maguarichi,27.859303,-107.993956
8,Chihuahua,Chih.,42,Manuel Benavides,29.107386,-103.907816
8,Chihuahua,Chih.,43,Matachí,28.843228,-107.754648
8,Chihuahua,Chih.,44,Matamoros,26.763877,-105.58333
8,Chihuahua,Chih.,45,Meoqui,28.267797,-105.480291
8,Chihuahua,Chih.,46,Morelos,26.670527,-107.677248
8,Chihuahua,Chih.,47,Moris,28.148384,-108.523238
8,Chihuahua,Chih.,48,Namiquipa,29.25076,-107.408872
8,Chihuahua,Chih.,49,Nonoava,27.472054,-106.735332
8,Chihuahua,Chih.,50,Nuevo Casas Grandes,30.413986,-107.912103
8,Chihuahua,Chih.,51,Ocampo,28.193834,-108.366741
8,Chihuahua,Chih.,52,Ojinaga,29.564501,-104.415665
8,Chihuahua,Chih.,53,Praxedis G. Guerrero,31.372068,-106.005395
8,Chihuahua,Chih.,54,Riva Palacio,28.546008,-106.502632
8,Chihuahua,Chih.,55,Rosales,28.186944,-105.554444
8,Chihuahua,Chih.,56,Rosario,27.319641,-106.295498
8,Chihuahua,Chih.,57,San Francisco de Borja,27.901821,-106.684916
8,Chihuahua,Chih.,58,San Francisco de Conchos,27.588552,-105.334641
8,Chihuahua,Chih.,59,San Francisco del Oro,26.858994,-105.85008
8,Chihuahua,Chih.,60,Santa Bárbara,26.8021,-105.8181
8,Chihuahua,Chih.,61,Satevó,27.956034,-106.107204
8,Chihuahua,Chih.,62,Saucillo,28.032674,-105.288032
8,Chihuahua,Chih.,63,Temósachic,28.952758,-107.829839
8,Chihuahua,Chih.,64,El Tule,27.053613,-106.266253
8,Chihuahua,Chih.,65,Urique,27.212715,-107.914305
8,Chihuahua,Chih.,66,Uruachi,27.867924,-108.215195
8,Chihuahua,Chih.,67,Valle de Zaragoza,27.457132,-105.810994
9,Ciudad de México,CDMX,2,Azcapotzalco,19.484103,-99.184361
9,Ciudad de México,CDMX,3,Coyoacán,19.350214,-99.162146
9,Ciudad de México,CDMX,4,Cuajimalpa de Morelos,19.35735,-99.299792
9,Ciudad de México,CDMX,5,Gustavo A. Madero,19.482945,-99.113471
9,Ciudad de México,CDMX,6,Iztacalco,19.395901,-99.097613
9,Ciudad de México,CDMX,7,Iztapalapa,19.359004,-99.092623
9,Ciudad de México,CDMX,8,La Magdalena Contreras,19.304898,-99.241516
9,Ciudad de México,CDMX,9,Milpa Alta,19.191249,-99.023372
9,Ciudad de México,CDMX,10,Álvaro Obregón,19.390806,-99.195413
9,Ciudad de México,CDMX,11,Tláhuac,19.270566,-99.004846
9,Ciudad de México,CDMX,12,Tlalpan,19.288275,-99.167126
9,Ciudad de México,CDMX,13,Xochimilco,19.263462,-99.104913
9,Ciudad de México,CDMX,14,Benito Juárez,19.371992,-99.157853
9,Ciudad de México,CDMX,15,Cuauhtémoc,19.441647,-99.151884
9,Ciudad de México,CDMX,16,Miguel Hidalgo,19.407269,-99.190754
9,Ciudad de México,CDMX,17,Venustiano Carranza,19.419262,-99.113701
10,Durango,Dgo.,1,Canatlán,24.527263,-104.778374
10,Durango,Dgo.,2,Canelas,25.122971,-106.545633
10,Durango,Dgo.,3,Coneto de Comonfort,24.979125,-104.768917
10,Durango,Dgo.,4,Cuencamé,24.870939,-103.698462
10,Durango,Dgo.,5,Durango,24.023988,-104.670194
10,Durango,Dgo.,6,General Simón Bolívar,24.689074,-103.225975
10,Durango,Dgo.,7,Gómez Palacio,25.570107,-103.496417
10,Durango,Dgo.,8,Guadalupe Victoria,24.446433,-104.12366
10,Durango,Dgo.,9,Guanaceví,25.931662,-105.954432
10,Durango,Dgo.,10,Hidalgo,26.251445,-104.913479
10,Durango,Dgo.,11,Indé,25.912021,-105.223791
10,Durango,Dgo.,12,Lerdo,25.536552,-103.524849
10,Durango,Dgo.,13,Mapimí,25.833324,-103.848194
10,Durango,Dgo.,14,Mezquital,23.47353,-104.396744
10,Durango,Dgo.,15,Nazas,25.227777,-104.113803
10,Durango,Dgo.,16,Nombre de Dios,23.848172,-104.244767
10,Durango,Dgo.,17,Ocampo,26.441562,-105.506439
10,Durango,Dgo.,18,El Oro,25.949324,-105.364866
10,Durango,Dgo.,19,Otáez,24.698689,-105.994058
10,Durango,Dgo.,20,Pánuco de Coronado,24.401024,-104.319264
10,Durango,Dgo.,21,Peñón Blanco,24.792509,-104.034267
10,Durango,Dgo.,22,Poanas,23.975092,-104.044136
10,Durango,Dgo.,23,Pueblo Nuevo,23.778151,-105.360192
10,Durango,Dgo.,24,Rodeo,25.180719,-104.560444
10,Durango,Dgo.,25,San Bernardo,26.000787,-105.523257
10,Durango,Dgo.,26,San Dimas,24.102182,-105.931245
10,Durango,Dgo.,27,San Juan de Guadalupe,24.630853,-102.782055
10,Durango,Dgo.,28,San Juan del Río,24.778255,-104.459226
10,Durango,Dgo.,29,San Luis del Cordero,25.417649,-104.277786
10,Durango,Dgo.,30,San Pedro del Gallo,25.565864,-104.292834
10,Durango,Dgo.,31,Santa Clara,24.475444,-103.357222
10,Durango,Dgo.,32,Santiago Papasquiaro,25.03908,-105.420945
10,Durango,Dgo.,33,Súchil,23.622163,-103.92187
10,Durango,Dgo.,34,Tamazula,24.970316,-106.966602
10,Durango,Dgo.,35,Tepehuanes,25.343209,-105.723002
10,Durango,Dgo.,36,Tlahualilo,26.107386,-103.439236
10,Durango,Dgo.,37,Topia,25.209023,-106.571196
10,Durango,Dgo.,38,Vicente Guerrero,23.731111,-103.987778
10,Durango,Dgo.,39,Nuevo Ideal,24.888313,-105.074205
11,Guanajuato,Gto.,1,Abasolo,20.4509,-101.528361
11,Guanajuato,Gto.,2,Acámbaro,20.03538,-100.719326
11,Guanajuato,Gto.,3,San Miguel de Allende,20.904013,-100.713381
11,Guanajuato,Gto.,4,Apaseo el Alto,20.457171,-100.621626
11,Guanajuato,Gto.,5,Apaseo el Grande,20.545284,-100.688217
11,Guanajuato,Gto.,6,Atarjea,21.26704,-99.720267
11,Guanajuato,Gto.,7,Celaya,20.521524,-100.813573
11,Guanajuato,Gto.,8,Manuel Doblado,20.727518,-101.95279
11,Guanajuato,Gto.,9,Comonfort,20.720048,-100.761202
11,Guanajuato,Gto.,10,Coroneo,20.198611,-100.364444
11,Guanajuato,Gto.,11,Cortazar,20.483506,-100.963729
11,Guanajuato,Gto.,12,Cuerámaro,20.626478,-101.670386
11,Guanajuato,Gto.,13,Doctor Mora,21.14264,-100.318949
11,Guanajuato,Gto.,14,Dolores Hidalgo Cuna de la Independencia Nacional,21.1592,-100.917236
11,Guanajuato,Gto.,15,Guanajuato,21.016098,-101.253621
11,Guanajuato,Gto.,16,Huanímaro,20.368274,-101.496867
11,Guanajuato,Gto.,17,Irapuato,20.672801,-101.348117
11,Guanajuato,Gto.,18,Jaral del Progreso,20.376517,-101.063975
11,Guanajuato,Gto.,19,Jerécuaro,20.150034,-100.510528
11,Guanajuato,Gto.,20,León,21.121972,-101.6832
11,Guanajuato,Gto.,21,Moroleón,20.13187,-101.189209
11,Guanajuato,Gto.,22,Ocampo,21.648492,-101.478016
11,Guanajuato,Gto.,23,Pénjamo,20.431795,-101.725044
11,Guanajuato,Gto.,24,Pueblo Nuevo,20.525957,-101.370847
11,Guanajuato,Gto.,25,Purísima del Rincón,21.029579,-101.878099
11,Guanajuato,Gto.,26,Romita,20.871215,-101.517117
11,Guanajuato,Gto.,27,Salamanca,20.568681,-101.199915
11,Guanajuato,Gto.,28,Salvatierra,20.216118,-100.88136
11,Guanajuato,Gto.,29,San Diego de la Unión,21.466387,-100.873316
11,Guanajuato,Gto.,30,San Felipe,21.479336,-101.215945
11,Guanajuato,Gto.,31,San Francisco del Rincón,21.018681,-101.858518
11,Guanajuato,Gto.,32,San José Iturbide,21.000822,-100.38572
11,Guanajuato,Gto.,33,San Luis de la Paz,21.298816,-100.515126
11,Guanajuato,Gto.,34,Santa Catarina,21.139878,-100.066913
11,Guanajuato,Gto.,35,Santa Cruz de Juventino Rosas,20.6432,-100.994037
11,Guanajuato,Gto.,36,Santiago Maravatío,20.172407,-100.995226
11,Guanajuato,Gto.,37,Silao de la Victoria,20.94445,-101.426216
11,Guanajuato,Gto.,38,Tarandacuao,20.003968,-100.516329
11,Guanajuato,Gto.,39,Tarimoro,20.288541,-100.755942
11,Guanajuato,Gto.,40,Tierra Blanca,21.100003,-100.159154
11,Guanajuato,Gto.,41,Uriangato,20.141012,-101.178051
11,Guanajuato,Gto.,42,Valle de Santiago,20.391322,-101.18143
11,Guanajuato,Gto.,43,Victoria,21.212172,-100.215936
11,Guanajuato,Gto.,44,Villagrán,20.511372,-100.996503
11,Guanajuato,Gto.,45,Xichú,21.298608,-100.059612
11,Guanajuato,Gto.,46,Yuriria,20.212743,-101.130933
12,Guerrero,Gro.,1,Acapulco de Juárez,16.861867,-99.886558
12,Guerrero,Gro.,2,Ahuacuotzingo,17.714089,-98.934908
12,Guerrero,Gro.,3,Ajuchitlán del Progreso,18.159555,-100.496057
12,Guerrero,Gro.,4,Alcozauca de Guerrero,17.463524,-98.383888
12,Guerrero,Gro.,5,Alpoyeca,17.670064,-98.513239
12,Guerrero,Gro.,6,Apaxtla,18.130078,-99.932314
12,Guerrero,Gro.,7,Arcelia,18.315825,-100.283952
12,Guerrero,Gro.,8,Atenango del Río,18.104343,-99.107803
12,Guerrero,Gro.,9,Atlamajalcingo del Monte,17.311655,-98.605085
12,Guerrero,Gro.,10,Atlixtac,17.563679,-98.933232
12,Guerrero,Gro.,11,Atoyac de Álvarez,17.212739,-100.433129
12,Guerrero,Gro.,12,Ayutla de los Libres,16.965287,-99.097384
12,Guerrero,Gro.,13,Azoyú,16.73296,-98.601091
12,Guerrero,Gro.,14,Benito Juárez,17.13637,-100.468668
12,Guerrero,Gro.,15,Buenavista de Cuéllar,18.457887,-99.405342
12,Guerrero,Gro.,16,Coahuayutla de José María Izazaga,18.316395,-101.734611
12,Guerrero,Gro.,17,Cocula,18.235866,-99.66119
12,Guerrero,Gro.,18,Copala,16.608759,-98.978624
12,Guerrero,Gro.,19,Copalillo,18.034151,-99.041724
12,Guerrero,Gro.,20,Copanatoyac,17.461845,-98.713463
12,Guerrero,Gro.,21,Coyuca de Benítez,17.009002,-100.089367
12,Guerrero,Gro.,22,Coyuca de Catalán,18.331019,-100.698566
12,Guerrero,Gro.,23,Cuajinicuilapa,16.471986,-98.416745
12,Guerrero,Gro.,24,Cualác,17.742762,-98.660728
12,Guerrero,Gro.,25,Cuautepec,16.749003,-99.001546
12,Guerrero,Gro.,26,Cuetzala del Progreso,18.134141,-99.831486
12,Guerrero,Gro.,27,Cutzamala de Pinzón,18.465244,-100.578513
12,Guerrero,Gro.,28,Chilapa de Álvarez,17.594232,-99.177682
12,Guerrero,Gro.,29,Chilpancingo de los Bravo,17.551649,-99.501063
12,Guerrero,Gro.,30,Florencio Villarreal,16.723881,-99.123787
12,Guerrero,Gro.,31,General Canuto A. Neri,18.418485,-100.072052
12,Guerrero,Gro.,32,General Heliodoro Castillo,17.789448,-99.978318
12,Guerrero,Gro.,33,Huamuxtitlán,17.802174,-98.565287
12,Guerrero,Gro.,34,Huitzuco de los Figueroa,18.30598,-99.334303
12,Guerrero,Gro.,35,Iguala de la Independencia,18.344549,-99.538368
12,Guerrero,Gro.,36,Igualapa,16.743713,-98.476618
12,Guerrero,Gro.,37,Ixcateopan de Cuauhtémoc,18.502452,-99.793569
12,Guerrero,Gro.,38,Zihuatanejo de Azueta,17.650458,-101.548176
12,Guerrero,Gro.,39,Juan R. Escudero,17.169004,-99.522047
12,Guerrero,Gro.,40,Leonardo Bravo,17.660802,-99.677341
12,Guerrero,Gro.,41,Malinaltepec,17.244628,-98.671108
12,Guerrero,Gro.,42,Mártir de Cuilapan,17.741925,-99.329341
12,Guerrero,Gro.,43,Metlatónoc,17.195372,-98.407099
12,Guerrero,Gro.,44,Mochitlán,17.472358,-99.371294
12,Guerrero,Gro.,45,Olinalá,17.778332,-98.741256
12,Guerrero,Gro.,46,Ometepec,16.685089,-98.404421
12,Guerrero,Gro.,47,Pedro Ascencio Alquisiras,18.512364,-99.887018
12,Guerrero,Gro.,48,Petatlán,17.538207,-101.274552
12,Guerrero,Gro.,49,Pilcaya,18.747584,-99.676175
12,Guerrero,Gro.,50,Pungarabato,18.362273,-100.668241
12,Guerrero,Gro.,51,Quechultenango,17.409167,-99.240833
12,Guerrero,Gro.,52,San Luis Acatlán,16.808583,-98.733613
12,Guerrero,Gro.,53,San Marcos,16.797344,-99.390046
12,Guerrero,Gro.,54,San Miguel Totolapan,18.161267,-100.390821
12,Guerrero,Gro.,55,Taxco de Alarcón,18.557382,-99.604595
12,Guerrero,Gro.,56,Tecoanapa,16.988854,-99.260876
12,Guerrero,Gro.,57,Técpan de Galeana,17.222609,-100.632378
12,Guerrero,Gro.,58,Teloloapan,18.371809,-99.869573
12,Guerrero,Gro.,59,Tepecoacuilco de Trujano,18.28699,-99.466694
12,Guerrero,Gro.,60,Tetipac,18.649385,-99.648982
12,Guerrero,Gro.,61,Tixtla de Guerrero,17.566724,-99.398271
12,Guerrero,Gro.,62,Tlacoachistlahuaca,16.809909,-98.301749
12,Guerrero,Gro.,63,Tlacoapa,17.259948,-98.748211
12,Guerrero,Gro.,64,Tlalchapa,18.408674,-100.478253
12,Guerrero,Gro.,65,Tlalixtaquilla de Maldonado,17.574484,-98.369862
12,Guerrero,Gro.,66,Tlapa de Comonfort,17.546949,-98.582138
12,Guerrero,Gro.,67,Tlapehuala,18.23976,-100.541574
12,Guerrero,Gro.,68,La Unión de Isidoro Montes de Oca,17.982333,-101.805685
12,Guerrero,Gro.,69,Xalpatláhuac,17.470875,-98.606449
12,Guerrero,Gro.,70,Xochihuehuetlán,17.90564,-98.487661
12,Guerrero,Gro.,71,Xochistlahuaca,16.792424,-98.242467
12,Guerrero,Gro.,72,Zapotitlán Tablas,17.422887,-98.781709
12,Guerrero,Gro.,73,Zirándaro,18.479133,-100.975856
12,Guerrero,Gro.,74,Zitlala,17.690341,-99.185248
12,Guerrero,Gro.,75,Eduardo Neri,17.653197,-99.525937
12,Guerrero,Gro.,76,Acatepec,17.325219,-98.910334
12,Guerrero,Gro.,77,Marquelia,16.583314,-98.817852
12,Guerrero,Gro.,78,Cochoapa el Grande,17.192967,-98.45528
12,Guerrero,Gro.,79,José Joaquín de Herrera,17.448726,-99.024388
12,Guerrero,Gro.,80,Juchitán,16.627071,-98.636714
12,Guerrero,Gro.,81,Iliatenco,17.045531,-98.685811
13,Hidalgo,Hgo.,1,Acatlán,20.145848,-98.438434
13,Hidalgo,Hgo.,2,Acaxochitlán,20.158605,-98.203252
13,Hidalgo,Hgo.,3,Actopan,20.269047,-98.942901
13,Hidalgo,Hgo.,4,Agua Blanca de Iturbide,20.349504,-98.356386
13,Hidalgo,Hgo.,5,Ajacuba,20.092516,-99.122185
13,Hidalgo,Hgo.,6,Alfajayucan,20.409971,-99.349589
13,Hidalgo,Hgo.,7,Almoloya,19.703333,-98.403333
13,Hidalgo,Hgo.,8,Apan,19.71,-98.451944
13,Hidalgo,Hgo.,9,El Arenal,20.221374,-98.911089
13,Hidalgo,Hgo.,10,Atitalaquia,20.059155,-99.221129
13,Hidalgo,Hgo.,11,Atlapexco,21.017114,-98.348187
13,Hidalgo,Hgo.,12,Atotonilco el Grande,20.286878,-98.669024
13,Hidalgo,Hgo.,13,Atotonilco de Tula,20.007767,-99.220191
13,Hidalgo,Hgo.,14,Calnali,20.897178,-98.583532
13,Hidalgo,Hgo.,15,Cardonal,20.613389,-99.117069
13,Hidalgo,Hgo.,16,Cuautepec de Hinojosa,20.03547,-98.309738
13,Hidalgo,Hgo.,17,Chapantongo,20.285316,-99.413231
13,Hidalgo,Hgo.,18,Chapulhuacán,21.159418,-98.904588
13,Hidalgo,Hgo.,19,Chilcuautla,20.330831,-99.231693
13,Hidalgo,Hgo.,20,Eloxochitlán,20.746718,-98.809141
13,Hidalgo,Hgo.,21,Emiliano Zapata,19.657008,-98.547416
13,Hidalgo,Hgo.,22,Epazoyucan,20.018022,-98.636209
13,Hidalgo,Hgo.,23,Francisco I. Madero,20.245186,-99.088894
13,Hidalgo,Hgo.,24,Huasca de Ocampo,20.203611,-98.577615
13,Hidalgo,Hgo.,25,Huautla,21.031387,-98.286821
13,Hidalgo,Hgo.,26,Huazalingo,20.980303,-98.507748
13,Hidalgo,Hgo.,27,Huehuetla,20.460306,-98.078424
13,Hidalgo,Hgo.,28,Huejutla de Reyes,21.13942,-98.420501
13,Hidalgo,Hgo.,29,Huichapan,20.375313,-99.651181
13,Hidalgo,Hgo.,30,Ixmiquilpan,20.484868,-99.218774
13,Hidalgo,Hgo.,31,Jacala de Ledezma,21.008296,-99.188569
13,Hidalgo,Hgo.,32,Jaltocán,21.133186,-98.538436
13,Hidalgo,Hgo.,33,Juárez Hidalgo,20.783717,-98.828861
13,Hidalgo,Hgo.,34,Lolotla,20.841164,-98.717289
13,Hidalgo,Hgo.,35,Metepec,20.23841,-98.322164
13,Hidalgo,Hgo.,36,San Agustín Metzquititlán,20.532602,-98.638621
13,Hidalgo,Hgo.,37,Metztitlán,20.5947,-98.764144
13,Hidalgo,Hgo.,38,Mineral del Chico,20.215571,-98.731229
13,Hidalgo,Hgo.,39,Mineral del Monte,20.140491,-98.67153
13,Hidalgo,Hgo.,40,La Misión,21.099419,-99.123187
13,Hidalgo,Hgo.,41,Mixquiahuala de Juárez,20.22938,-99.213798
13,Hidalgo,Hgo.,42,Molango de Escamilla,20.786498,-98.730814
13,Hidalgo,Hgo.,43,Nicolás Flores,20.767778,-99.150556
13,Hidalgo,Hgo.,44,Nopala de Villagrán,20.251744,-99.644328
13,Hidalgo,Hgo.,45,Omitlán de Juárez,20.1695,-98.648639
13,Hidalgo,Hgo.,46,San Felipe Orizatlán,21.170944,-98.607815
13,Hidalgo,Hgo.,47,Pacula,21.050821,-99.296099
13,Hidalgo,Hgo.,48,Pachuca de Soto,20.12236,-98.737001
13,Hidalgo,Hgo.,49,Pisaflores,21.194782,-99.005997
13,Hidalgo,Hgo.,50,Progreso de Obregón,20.248204,-99.189505
13,Hidalgo,Hgo.,51,Mineral de la Reforma,20.072371,-98.696035
13,Hidalgo,Hgo.,52,San Agustín Tlaxiaca,20.115661,-98.886778
13,Hidalgo,Hgo.,53,San Bartolo Tutotepec,20.399143,-98.20206
13,Hidalgo,Hgo.,54,San Salvador,20.284568,-99.015604
13,Hidalgo,Hgo.,55,Santiago de Anaya,20.382582,-98.963953
13,Hidalgo,Hgo.,56,Santiago Tulantepec de Lugo Guerrero,20.039193,-98.357006
13,Hidalgo,Hgo.,57,Singuilucan,19.9675,-98.517222
13,Hidalgo,Hgo.,58,Tasquillo,20.551714,-99.312431
13,Hidalgo,Hgo.,59,Tecozautla,20.533873,-99.634924
13,Hidalgo,Hgo.,60,Tenango de Doria,20.338056,-98.226729
13,Hidalgo,Hgo.,61,Tepeapulco,19.785674,-98.553662
13,Hidalgo,Hgo.,62,Tepehuacán de Guerrero,21.014084,-98.843733
13,Hidalgo,Hgo.,63,Tepeji del Río de Ocampo,19.905217,-99.341814
13,Hidalgo,Hgo.,64,Tepetitlán,20.186858,-99.380365
13,Hidalgo,Hgo.,65,Tetepango,20.102655,-99.156123
13,Hidalgo,Hgo.,66,Villa de Tezontepec,19.879861,-98.81929
13,Hidalgo,Hgo.,67,Tezontepec de Aldama,20.192762,-99.272683
13,Hidalgo,Hgo.,68,Tianguistengo,20.728213,-98.630851
13,Hidalgo,Hgo.,69,Tizayuca,19.841089,-98.981584
13,Hidalgo,Hgo.,70,Tlahuelilpan,20.130627,-99.23468
13,Hidalgo,Hgo.,71,Tlahuiltepa,20.923913,-98.950201
13,Hidalgo,Hgo.,72,Tlanalapa,19.817894,-98.603913
13,Hidalgo,Hgo.,73,Tlanchinol,20.989346,-98.660284
13,Hidalgo,Hgo.,74,Tlaxcoapan,20.091614,-99.221593
13,Hidalgo,Hgo.,75,Tolcayuca,19.956591,-98.921761
13,Hidalgo,Hgo.,76,Tula de Allende,20.05522,-99.343189
13,Hidalgo,Hgo.,77,Tulancingo de Bravo,20.080605,-98.368073
13,Hidalgo,Hgo.,78,Xochiatipan,20.835483,-98.284531
13,Hidalgo,Hgo.,79,Xochicoatlán,20.776855,-98.679724
13,Hidalgo,Hgo.,80,Yahualica,20.951649,-98.382867
13,Hidalgo,Hgo.,81,Zacualtipán de Ángeles,20.645181,-98.653627
13,Hidalgo,Hgo.,82,Zapotlán de Juárez,19.974047,-98.861883
13,Hidalgo,Hgo.,83,Zempoala,19.915397,-98.668131
13,Hidalgo,Hgo.,84,Zimapán,20.738069,-99.383113
14,Jalisco,Jal.,1,Acatic,20.779444,-102.905278
14,Jalisco,Jal.,2,Acatlán de Juárez,20.421389,-103.587222
14,Jalisco,Jal.,3,Ahualulco de Mercado,20.700556,-103.975
14,Jalisco,Jal.,4,Amacueca,20.010556,-103.596111
14,Jalisco,Jal.,5,Amatitán,20.835,-103.73
14,Jalisco,Jal.,6,Ameca,20.548611,-104.043056
14,Jalisco,Jal.,7,San Juanito de Escobedo,20.799444,-104.000278
14,Jalisco,Jal.,8,Arandas,20.705556,-102.340278
14,Jalisco,Jal.,9,El Arenal,20.776111,-103.693889
14,Jalisco,Jal.,10,Atemajac de Brizuela,20.139444,-103.724444
14,Jalisco,Jal.,11,Atengo,20.275556,-104.234444
14,Jalisco,Jal.,12,Atenguillo,20.414722,-104.4925
14,Jalisco,Jal.,13,Atotonilco el Alto,20.550556,-102.504167
14,Jalisco,Jal.,14,Atoyac,20.010556,-103.516389
14,Jalisco,Jal.,15,Autlán de Navarro,19.771389,-104.365278
14,Jalisco,Jal.,16,Ayotlán,20.528056,-102.328333
14,Jalisco,Jal.,17,Ayutla,20.129167,-104.347778
14,Jalisco,Jal.,18,La Barca,20.290278,-102.541944
14,Jalisco,Jal.,19,Bolaños,21.831667,-103.780556
14,Jalisco,Jal.,20,Cabo Corrientes,20.318333,-105.323889
14,Jalisco,Jal.,21,Casimiro Castillo,19.603611,-104.434722
14,Jalisco,Jal.,22,Cihuatlán,19.238333,-104.563056
14,Jalisco,Jal.,23,Zapotlán el Grande,19.708611,-103.464167
14,Jalisco,Jal.,24,Cocula,20.3675,-103.824167
14,Jalisco,Jal.,25,Colotlán,22.117222,-103.264722
14,Jalisco,Jal.,26,Concepción de Buenos Aires,19.978611,-103.257222
14,Jalisco,Jal.,27,Cuautitlán de García Barragán,19.449722,-104.356944
14,Jalisco,Jal.,28,Cuautla,20.201389,-104.4075
14,Jalisco,Jal.,29,Cuquío,20.9275,-103.023889
14,Jalisco,Jal.,30,Chapala,20.293333,-103.189722
14,Jalisco,Jal.,31,Chimaltitán,21.778611,-103.780556
14,Jalisco,Jal.,32,Chiquilistlán,20.088611,-103.858056
14,Jalisco,Jal.,33,Degollado,20.4475,-102.135
14,Jalisco,Jal.,34,Ejutla,19.906389,-104.161944
14,Jalisco,Jal.,35,Encarnación de Díaz,21.524444,-102.233056
14,Jalisco,Jal.,36,Etzatlán,20.767222,-104.078333
14,Jalisco,Jal.,37,El Grullo,19.8075,-104.215556
14,Jalisco,Jal.,38,Guachinango,20.576389,-104.377222
14,Jalisco,Jal.,39,Guadalajara,20.676389,-103.342222
14,Jalisco,Jal.,40,Hostotipaquillo,21.058056,-104.050278
14,Jalisco,Jal.,41,Huejúcar,22.362222,-103.211667
14,Jalisco,Jal.,42,Huejuquilla el Alto,22.628611,-103.894167
14,Jalisco,Jal.,43,La Huerta,19.485,-104.643333
14,Jalisco,Jal.,44,Ixtlahuacán de los Membrillos,20.346667,-103.191389
14,Jalisco,Jal.,45,Ixtlahuacán del Río,20.864167,-103.239167
14,Jalisco,Jal.,46,Jalostotitlán,21.168611,-102.461111
14,Jalisco,Jal.,47,Jamay,20.294444,-102.709722
14,Jalisco,Jal.,48,Jesús María,20.6075,-102.22
14,Jalisco,Jal.,49,Jilotlán de los Dolores,19.370556,-103.019722
14,Jalisco,Jal.,50,Jocotepec,20.284444,-103.425278
14,Jalisco,Jal.,51,Juanacatlán,20.509444,-103.167222
14,Jalisco,Jal.,52,Juchitlán,20.083611,-104.098333
14,Jalisco,Jal.,53,Lagos de Moreno,21.356389,-101.929167
14,Jalisco,Jal.,54,El Limón,19.824444,-104.152222
14,Jalisco,Jal.,55,Magdalena,20.906389,-103.976111
14,Jalisco,Jal.,56,Santa María del Oro,19.5875,-102.908333
14,Jalisco,Jal.,57,La Manzanilla de la Paz,20.004444,-103.15
14,Jalisco,Jal.,58,Mascota,20.525556,-104.782222
14,Jalisco,Jal.,59,Mazamitla,19.917222,-103.020278
14,Jalisco,Jal.,60,Mexticacán,21.263056,-102.777778
14,Jalisco,Jal.,61,Mezquitic,22.39,-103.728056
14,Jalisco,Jal.,62,Mixtlán,20.440556,-104.408889
14,Jalisco,Jal.,63,Ocotlán,20.351389,-102.768056
14,Jalisco,Jal.,64,Ojuelos de Jalisco,21.864167,-101.593333
14,Jalisco,Jal.,65,Pihuamo,19.2525,-103.375
14,Jalisco,Jal.,66,Poncitlán,20.381389,-102.924167
14,Jalisco,Jal.,67,Puerto Vallarta,20.613611,-105.227222
14,Jalisco,Jal.,68,Villa Purificación,19.719167,-104.605
14,Jalisco,Jal.,69,Quitupan,19.9275,-102.872222
14,Jalisco,Jal.,70,El Salto,20.519444,-103.181667
14,Jalisco,Jal.,71,San Cristóbal de la Barranca,21.044444,-103.429167
14,Jalisco,Jal.,72,San Diego de Alejandría,20.993056,-101.993611
14,Jalisco,Jal.,73,San Juan de los Lagos,21.247778,-102.332778
14,Jalisco,Jal.,74,San Julián,21.009722,-102.180833
14,Jalisco,Jal.,75,San Marcos,20.79,-104.1975
14,Jalisco,Jal.,76,San Martín de Bolaños,21.683611,-103.814167
14,Jalisco,Jal.,77,San Martín Hidalgo,20.435,-103.928611
14,Jalisco,Jal.,78,San Miguel el Alto,21.030556,-102.398056
14,Jalisco,Jal.,79,Gómez Farías,19.794444,-103.473056
14,Jalisco,Jal.,80,San Sebastián del Oeste,20.760833,-104.851667
14,Jalisco,Jal.,81,Santa María de los Ángeles,22.173333,-103.223056
14,Jalisco,Jal.,82,Sayula,19.883611,-103.597222
14,Jalisco,Jal.,83,Tala,20.6525,-103.702778
14,Jalisco,Jal.,84,Talpa de Allende,20.381389,-104.818056
14,Jalisco,Jal.,85,Tamazula de Gordiano,19.676389,-103.25
14,Jalisco,Jal.,86,Tapalpa,19.945556,-103.754167
14,Jalisco,Jal.,87,Tecalitlán,19.469444,-103.306667
14,Jalisco,Jal.,88,Tecolotlán,20.203611,-104.045
14,Jalisco,Jal.,89,Techaluta de Montenegro,20.074167,-103.551667
14,Jalisco,Jal.,90,Tenamaxtlán,20.218611,-104.160278
14,Jalisco,Jal.,91,Teocaltiche,21.434444,-102.570278
14,Jalisco,Jal.,92,Teocuitatlán de Corona,20.093333,-103.38
14,Jalisco,Jal.,93,Tepatitlán de Morelos,20.8175,-102.757222
14,Jalisco,Jal.,94,Tequila,20.879444,-103.835556
14,Jalisco,Jal.,95,Teuchitlán,20.685278,-103.849167
14,Jalisco,Jal.,96,Tizapán el Alto,20.158611,-103.039167
14,Jalisco,Jal.,97,Tlajomulco de Zúñiga,20.473611,-103.443056
14,Jalisco,Jal.,98,San Pedro Tlaquepaque,20.638611,-103.307222
14,Jalisco,Jal.,99,Tolimán,19.6,-103.914444
14,Jalisco,Jal.,100,Tomatlán,19.941389,-105.245278
14,Jalisco,Jal.,101,Tonalá,20.623333,-103.245556
14,Jalisco,Jal.,102,Tonaya,19.784167,-103.970833
14,Jalisco,Jal.,103,Tonila,19.410833,-103.549444
14,Jalisco,Jal.,104,Totatiche,21.928611,-103.443611
14,Jalisco,Jal.,105,Tototlán,20.543611,-102.789167
14,Jalisco,Jal.,106,Tuxcacuesco,19.697222,-103.983611
14,Jalisco,Jal.,107,Tuxcueca,20.155556,-103.183889
14,Jalisco,Jal.,108,Tuxpan,19.554444,-103.372222
14,Jalisco,Jal.,109,Unión de San Antonio,21.128056,-102.007222
14,Jalisco,Jal.,110,Unión de Tula,19.954444,-104.264444
14,Jalisco,Jal.,111,Valle de Guadalupe,21.010556,-102.617778
14,Jalisco,Jal.,112,Valle de Juárez,19.933611,-102.940278
14,Jalisco,Jal.,113,San Gabriel,19.7475,-103.765278
14,Jalisco,Jal.,114,Villa Corona,20.416389,-103.661389
14,Jalisco,Jal.,115,Villa Guerrero,21.983056,-103.596667
14,Jalisco,Jal.,116,Villa Hidalgo,21.674444,-102.585278
14,Jalisco,Jal.,117,Cañadas de Obregón,21.148611,-102.685278
14,Jalisco,Jal.,118,Yahualica de González Gallo,21.1825,-102.887222
14,Jalisco,Jal.,119,Zacoalco de Torres,20.228611,-103.565278
14,Jalisco,Jal.,120,Zapopan,20.720556,-103.388333
14,Jalisco,Jal.,121,Zapotiltic,19.625556,-103.4125
14,Jalisco,Jal.,122,Zapotitlán de Vadillo,19.5475,-103.809167
14,Jalisco,Jal.,123,Zapotlán del Rey,20.466389,-102.926111
14,Jalisco,Jal.,124,Zapotlanejo,20.6225,-103.064167
14,Jalisco,Jal.,125,San Ignacio Cerro Gordo,20.743056,-102.536111
15,México,Mex.,1,Acambay de Ruíz Castañeda,19.956229,-99.844032
15,México,Mex.,2,Acolman,19.635509,-98.911906
15,México,Mex.,3,Aculco,20.099386,-99.827991
15,México,Mex.,4,Almoloya de Alquisiras,18.867233,-99.8938
15,México,Mex.,5,Almoloya de Juárez,19.369293,-99.758552
15,México,Mex.,6,Almoloya del Río,19.159386,-99.488842
15,México,Mex.,7,Amanalco,19.252377,-100.019982
15,México,Mex.,8,Amatepec,18.683491,-100.186048
15,México,Mex.,9,Amecameca,19.128685,-98.769811
15,México,Mex.,10,Apaxco,19.975325,-99.174163
15,México,Mex.,11,Atenco,19.559339,-98.913348
15,México,Mex.,12,Atizapán,19.176758,-99.487942
15,México,Mex.,13,Atizapán de Zaragoza,19.543171,-99.235041
15,México,Mex.,14,Atlacomulco,19.800029,-99.874254
15,México,Mex.,15,Atlautla,19.030861,-98.782666
15,México,Mex.,16,Axapusco,19.724458,-98.75833
15,México,Mex.,17,Ayapango,19.127221,-98.802506
15,México,Mex.,18,Calimaya,19.163225,-99.618665
15,México,Mex.,19,Capulhuac,19.193123,-99.464408
15,México,Mex.,20,Coacalco de Berriozábal,19.629299,-99.104377
15,México,Mex.,21,Coatepec Harinas,18.925711,-99.768519
15,México,Mex.,22,Cocotitlán,19.230856,-98.861952
15,México,Mex.,23,Coyotepec,19.775508,-99.20798
15,México,Mex.,24,Cuautitlán,19.665061,-99.17863
15,México,Mex.,25,Chalco,19.261132,-98.895655
15,México,Mex.,26,Chapa de Mota,19.813465,-99.525995
15,México,Mex.,27,Chapultepec,19.201163,-99.561873
15,México,Mex.,28,Chiautla,19.548652,-98.881349
15,México,Mex.,29,Chicoloapan,19.416765,-98.902012
15,México,Mex.,30,Chiconcuac,19.552722,-98.895307
15,México,Mex.,31,Chimalhuacán,19.416908,-98.945299
15,México,Mex.,32,Donato Guerra,19.308533,-100.144161
15,México,Mex.,33,Ecatepec de Morelos,19.599069,-99.049159
15,México,Mex.,34,Ecatzingo,18.958715,-98.752598
15,México,Mex.,35,Huehuetoca,19.833622,-99.204138
15,México,Mex.,36,Hueypoxtla,19.907039,-99.07837
15,México,Mex.,37,Huixquilucan,19.36018,-99.351692
15,México,Mex.,38,Isidro Fabela,19.555591,-99.41738
15,México,Mex.,39,Ixtapaluca,19.313104,-98.884247
15,México,Mex.,40,Ixtapan de la Sal,18.844606,-99.675823
15,México,Mex.,41,Ixtapan del Oro,19.26226,-100.264216
15,México,Mex.,42,Ixtlahuaca,19.569814,-99.769267
15,México,Mex.,43,Xalatlaco,19.184387,-99.413736
15,México,Mex.,44,Jaltenco,19.752221,-99.094031
15,México,Mex.,45,Jilotepec,19.952834,-99.532829
15,México,Mex.,46,Jilotzingo,19.538918,-99.397135
15,México,Mex.,47,Jiquipilco,19.557599,-99.6086
15,México,Mex.,48,Jocotitlán,19.711818,-99.785798
15,México,Mex.,49,Joquicingo,19.049228,-99.531818
15,México,Mex.,50,Juchitepec,19.101912,-98.880916
15,México,Mex.,51,Lerma,19.285373,-99.511817
15,México,Mex.,52,Malinalco,18.952342,-99.497565
15,México,Mex.,53,Melchor Ocampo,19.710414,-99.143458
15,México,Mex.,54,Metepec,19.25242,-99.604492
15,México,Mex.,55,Mexicaltzingo,19.211109,-99.586854
15,México,Mex.,56,Morelos,19.786978,-99.66777
15,México,Mex.,57,Naucalpan de Juárez,19.478803,-99.233218
15,México,Mex.,58,Nezahualcóyotl,19.408763,-99.0182
15,México,Mex.,59,Nextlalpan,19.739866,-99.080338
15,México,Mex.,60,Nicolás Romero,19.625715,-99.315898
15,México,Mex.,61,Nopaltepec,19.778769,-98.709587
15,México,Mex.,62,Ocoyoacac,19.269281,-99.455695
15,México,Mex.,63,Ocuilan,18.979092,-99.416944
15,México,Mex.,64,El Oro,19.802143,-100.130665
15,México,Mex.,65,Otumba,19.699854,-98.757694
15,México,Mex.,66,Otzoloapan,19.117408,-100.297712
15,México,Mex.,67,Otzolotepec,19.416206,-99.558589
15,México,Mex.,68,Ozumba,19.039177,-98.795389
15,México,Mex.,69,Papalotla,19.563378,-98.858209
15,México,Mex.,70,La Paz,19.358387,-98.976602
15,México,Mex.,71,Polotitlán,20.223809,-99.814745
15,México,Mex.,72,Rayón,19.148011,-99.581739
15,México,Mex.,73,San Antonio la Isla,19.164099,-99.569336
15,México,Mex.,74,San Felipe del Progreso,19.713924,-99.953294
15,México,Mex.,75,San Martín de las Pirámides,19.704843,-98.834524
15,México,Mex.,76,San Mateo Atenco,19.264167,-99.529722
15,México,Mex.,77,San Simón de Guerrero,19.023089,-100.007278
15,México,Mex.,78,Santo Tomás,19.182972,-100.259781
15,México,Mex.,79,Soyaniquilpan de Juárez,20.013891,-99.527896
15,México,Mex.,80,Sultepec,18.858546,-99.96643
15,México,Mex.,81,Tecámac,19.710207,-98.967143
15,México,Mex.,82,Tejupilco,18.905696,-100.153403
15,México,Mex.,83,Temamatla,19.202741,-98.869902
15,México,Mex.,84,Temascalapa,19.827787,-98.900891
15,México,Mex.,85,Temascalcingo,19.915911,-100.004081
15,México,Mex.,86,Temascaltepec,19.043075,-100.041359
15,México,Mex.,87,Temoaya,19.470014,-99.594906
15,México,Mex.,88,Tenancingo,18.96183,-99.593842
15,México,Mex.,89,Tenango del Aire,19.157003,-98.861296
15,México,Mex.,90,Tenango del Valle,19.103761,-99.591575
15,México,Mex.,91,Teoloyucan,19.745394,-99.183032
15,México,Mex.,92,Teotihuacán,19.685479,-98.868628
15,México,Mex.,93,Tepetlaoxtoc,19.573365,-98.819719
15,México,Mex.,94,Tepetlixpa,19.029515,-98.819708
15,México,Mex.,95,Tepotzotlán,19.713778,-99.223514
15,México,Mex.,96,Tequixquiac,19.910277,-99.148913
15,México,Mex.,97,Texcaltitlán,18.930389,-99.939277
15,México,Mex.,98,Texcalyacac,19.132228,-99.503069
15,México,Mex.,99,Texcoco,19.51344,-98.881484
15,México,Mex.,100,Tezoyuca,19.590313,-98.908504
15,México,Mex.,101,Tianguistenco,19.181214,-99.467439
15,México,Mex.,102,Timilpan,19.876169,-99.733779
15,México,Mex.,103,Tlalmanalco,19.205903,-98.802554
15,México,Mex.,104,Tlalnepantla de Baz,19.538523,-99.195198
15,México,Mex.,105,Tlatlaya,18.617842,-100.207831
15,México,Mex.,106,Toluca,19.293488,-99.657317
15,México,Mex.,107,Tonatico,18.802019,-99.670935
15,México,Mex.,108,Tultepec,19.685548,-99.128605
15,México,Mex.,109,Tultitlán,19.647513,-99.169195
15,México,Mex.,110,Valle de Bravo,19.194395,-100.131607
15,México,Mex.,111,Villa de Allende,19.373417,-100.149356
15,México,Mex.,112,Villa del Carbón,19.727588,-99.46308
15,México,Mex.,113,Villa Guerrero,18.961709,-99.642
15,México,Mex.,114,Villa Victoria,19.441876,-99.99505
15,México,Mex.,115,Xonacatlán,19.404419,-99.530338
15,México,Mex.,116,Zacazonapan,19.074457,-100.256116
15,México,Mex.,117,Zacualpan,18.71867,-99.775622
15,México,Mex.,118,Zinacantepec,19.284906,-99.735038
15,México,Mex.,119,Zumpahuacán,18.840928,-99.585596
15,México,Mex.,120,Zumpango,19.797123,-99.100634
15,México,Mex.,121,Cuautitlán Izcalli,19.656996,-99.209286
15,México,Mex.,122,Valle de Chalco Solidaridad,19.278765,-98.943449
15,México,Mex.,123,Luvianos,18.920482,-100.299446
15,México,Mex.,124,San José del Rincón,19.661043,-100.151945
15,México,Mex.,125,Tonanitla,19.688162,-99.054362
16,Michoacán de Ocampo,Mich.,1,Acuitzio,19.496252,-101.332851
16,Michoacán de Ocampo,Mich.,2,Aguililla,18.734231,-102.78838
16,Michoacán de Ocampo,Mich.,3,Álvaro Obregón,19.826306,-101.038485
16,Michoacán de Ocampo,Mich.,4,Angamacutiro,20.149654,-101.708311
16,Michoacán de Ocampo,Mich.,5,Angangueo,19.619833,-100.285511
16,Michoacán de Ocampo,Mich.,6,Apatzingán,19.087227,-102.355264
16,Michoacán de Ocampo,Mich.,7,Aporo,19.670836,-100.411128
16,Michoacán de Ocampo,Mich.,8,Aquila,18.599139,-103.504754
16,Michoacán de Ocampo,Mich.,9,Ario,19.207807,-101.709394
16,Michoacán de Ocampo,Mich.,10,Arteaga,18.355694,-102.290063
16,Michoacán de Ocampo,Mich.,11,Briseñas,20.271234,-102.561058
16,Michoacán de Ocampo,Mich.,12,Buenavista,19.211735,-102.587891
16,Michoacán de Ocampo,Mich.,13,Carácuaro,19.017308,-101.126991
16,Michoacán de Ocampo,Mich.,14,Coahuayana,18.702474,-103.662931
16,Michoacán de Ocampo,Mich.,15,Coalcomán de Vázquez Pallares,18.777099,-103.159555
16,Michoacán de Ocampo,Mich.,16,Coeneo,19.820984,-101.583751
16,Michoacán de Ocampo,Mich.,17,Contepec,19.955269,-100.164457
16,Michoacán de Ocampo,Mich.,18,Copándaro,19.893824,-101.215305
16,Michoacán de Ocampo,Mich.,19,Cotija,19.810285,-102.705822
16,Michoacán de Ocampo,Mich.,20,Cuitzeo,19.968214,-101.139584
16,Michoacán de Ocampo,Mich.,21,Charapan,19.650169,-102.252738
16,Michoacán de Ocampo,Mich.,22,Charo,19.747488,-101.046857
16,Michoacán de Ocampo,Mich.,23,Chavinda,20.006939,-102.458585
16,Michoacán de Ocampo,Mich.,24,Cherán,19.687652,-101.954816
16,Michoacán de Ocampo,Mich.,25,Chilchota,19.849207,-102.119437
16,Michoacán de Ocampo,Mich.,26,Chinicuila,18.758168,-103.3678
16,Michoacán de Ocampo,Mich.,27,Chucándiro,19.899965,-101.333391
16,Michoacán de Ocampo,Mich.,28,Churintzio,20.15096,-102.065921
16,Michoacán de Ocampo,Mich.,29,Churumuco,18.664558,-101.646553
16,Michoacán de Ocampo,Mich.,30,Ecuandureo,20.162616,-102.194566
16,Michoacán de Ocampo,Mich.,31,Epitacio Huerta,20.134689,-100.293722
16,Michoacán de Ocampo,Mich.,32,Erongarícuaro,19.588253,-101.720086
16,Michoacán de Ocampo,Mich.,33,Gabriel Zamora,19.159804,-102.053965
16,Michoacán de Ocampo,Mich.,34,Hidalgo,19.689351,-100.555161
16,Michoacán de Ocampo,Mich.,35,La Huacana,18.962887,-101.808867
16,Michoacán de Ocampo,Mich.,36,Huandacareo,19.988704,-101.275853
16,Michoacán de Ocampo,Mich.,37,Huaniqueo,19.898995,-101.505151
16,Michoacán de Ocampo,Mich.,38,Huetamo,18.626426,-100.899725
16,Michoacán de Ocampo,Mich.,39,Huiramba,19.546481,-101.437993
16,Michoacán de Ocampo,Mich.,40,Indaparapeo,19.790059,-100.968493
16,Michoacán de Ocampo,Mich.,41,Irimbo,19.697488,-100.479101
16,Michoacán de Ocampo,Mich.,42,Ixtlán,20.168366,-102.394624
16,Michoacán de Ocampo,Mich.,43,Jacona,19.956322,-102.306023
16,Michoacán de Ocampo,Mich.,44,Jiménez,19.922266,-101.749293
16,Michoacán de Ocampo,Mich.,45,Jiquilpan,19.989719,-102.718563
16,Michoacán de Ocampo,Mich.,46,Juárez,19.312258,-100.433516
16,Michoacán de Ocampo,Mich.,47,Jungapeo,19.458725,-100.494612
16,Michoacán de Ocampo,Mich.,48,Lagunillas,19.564623,-101.414779
16,Michoacán de Ocampo,Mich.,49,Madero,19.392121,-101.277616
16,Michoacán de Ocampo,Mich.,50,Maravatío,19.891674,-100.441667
16,Michoacán de Ocampo,Mich.,51,Marcos Castellanos,19.990238,-103.021504
16,Michoacán de Ocampo,Mich.,52,Lázaro Cárdenas,17.962334,-102.197981
16,Michoacán de Ocampo,Mich.,53,Morelia,19.703384,-101.192046
16,Michoacán de Ocampo,Mich.,54,Morelos,20.004252,-101.412386
16,Michoacán de Ocampo,Mich.,55,Múgica,19.028805,-102.086734
16,Michoacán de Ocampo,Mich.,56,Nahuatzen,19.654073,-101.917137
16,Michoacán de Ocampo,Mich.,57,Nocupétaro,19.043297,-101.162229
16,Michoacán de Ocampo,Mich.,58,Nuevo Parangaricutiro,19.416644,-102.12988
16,Michoacán de Ocampo,Mich.,59,Nuevo Urecho,19.165872,-101.868847
16,Michoacán de Ocampo,Mich.,60,Numarán,20.2549,-101.947197
16,Michoacán de Ocampo,Mich.,61,Ocampo,19.583848,-100.339282
16,Michoacán de Ocampo,Mich.,62,Pajacuarán,20.116894,-102.565513
16,Michoacán de Ocampo,Mich.,63,Panindícuaro,19.983959,-101.76146
16,Michoacán de Ocampo,Mich.,64,Parácuaro,19.145773,-102.220048
16,Michoacán de Ocampo,Mich.,65,Paracho,19.647297,-102.048468
16,Michoacán de Ocampo,Mich.,66,Pátzcuaro,19.513598,-101.610116
16,Michoacán de Ocampo,Mich.,67,Penjamillo,20.104468,-101.933671
16,Michoacán de Ocampo,Mich.,68,Peribán,19.520727,-102.416188
16,Michoacán de Ocampo,Mich.,69,La Piedad,20.34145,-102.022554
16,Michoacán de Ocampo,Mich.,70,Purépero,19.909963,-102.006741
16,Michoacán de Ocampo,Mich.,71,Puruándiro,20.088665,-101.5152
16,Michoacán de Ocampo,Mich.,72,Queréndaro,19.809821,-100.88352
16,Michoacán de Ocampo,Mich.,73,Quiroga,19.663786,-101.524004
16,Michoacán de Ocampo,Mich.,74,Cojumatlán de Régules,20.118998,-102.851005
16,Michoacán de Ocampo,Mich.,75,Los Reyes,19.588974,-102.474679
16,Michoacán de Ocampo,Mich.,76,Sahuayo,20.057684,-102.716797
16,Michoacán de Ocampo,Mich.,77,San Lucas,18.591411,-100.784752
16,Michoacán de Ocampo,Mich.,78,Santa Ana Maya,20.008392,-101.021763
16,Michoacán de Ocampo,Mich.,79,Salvador Escalante,19.406085,-101.639798
16,Michoacán de Ocampo,Mich.,80,Senguio,19.73323,-100.352378
16,Michoacán de Ocampo,Mich.,81,Susupuato,19.215154,-100.408334
16,Michoacán de Ocampo,Mich.,82,Tacámbaro,19.235537,-101.457328
16,Michoacán de Ocampo,Mich.,83,Tancítaro,19.337498,-102.363034
16,Michoacán de Ocampo,Mich.,84,Tangamandapio,19.953995,-102.432801
16,Michoacán de Ocampo,Mich.,85,Tangancícuaro,19.888234,-102.208453
16,Michoacán de Ocampo,Mich.,86,Tanhuato,20.283811,-102.327641
16,Michoacán de Ocampo,Mich.,87,Taretan,19.334562,-101.917904
16,Michoacán de Ocampo,Mich.,88,Tarímbaro,19.795666,-101.176392
16,Michoacán de Ocampo,Mich.,89,Tepalcatepec,19.191367,-102.843708
16,Michoacán de Ocampo,Mich.,90,Tingambato,19.501894,-101.853476
16,Michoacán de Ocampo,Mich.,91,Tingüindín,19.739139,-102.482917
16,Michoacán de Ocampo,Mich.,92,Tiquicheo de Nicolás Romero,18.900489,-100.736454
16,Michoacán de Ocampo,Mich.,93,Tlalpujahua,19.805304,-100.173593
16,Michoacán de Ocampo,Mich.,94,Tlazazalca,19.971236,-102.056679
16,Michoacán de Ocampo,Mich.,95,Tocumbo,19.703293,-102.52096
16,Michoacán de Ocampo,Mich.,96,Tumbiscatío,18.524801,-102.375023
16,Michoacán de Ocampo,Mich.,97,Turicato,19.053867,-101.419531
16,Michoacán de Ocampo,Mich.,98,Tuxpan,19.567961,-100.463778
16,Michoacán de Ocampo,Mich.,99,Tuzantla,19.207606,-100.573064
16,Michoacán de Ocampo,Mich.,100,Tzintzuntzan,19.625438,-101.576951
16,Michoacán de Ocampo,Mich.,101,Tzitzio,19.58551,-100.924651
16,Michoacán de Ocampo,Mich.,102,Uruapan,19.420888,-102.062799
16,Michoacán de Ocampo,Mich.,103,Venustiano Carranza,20.115974,-102.652361
16,Michoacán de Ocampo,Mich.,104,Villamar,20.020856,-102.595779
16,Michoacán de Ocampo,Mich.,105,Vista Hermosa,20.273115,-102.473646
16,Michoacán de Ocampo,Mich.,106,Yurécuaro,20.341089,-102.282425
16,Michoacán de Ocampo,Mich.,107,Zacapu,19.818619,-101.79286
16,Michoacán de Ocampo,Mich.,108,Zamora,19.983579,-102.285958
16,Michoacán de Ocampo,Mich.,109,Zináparo,20.173189,-101.998774
16,Michoacán de Ocampo,Mich.,110,Zinapécuaro,19.860275,-100.827583
16,Michoacán de Ocampo,Mich.,111,Ziracuaretiro,19.41699,-101.910499
16,Michoacán de Ocampo,Mich.,112,Zitácuaro,19.43718,-100.357486
16,Michoacán de Ocampo,Mich.,113,José Sixto Verduzco,20.302184,-101.596856
17,Morelos,Mor.,1,Amacuzac,18.600002,-99.369514
17,Morelos,Mor.,2,Atlatlahucan,18.936271,-98.899175
17,Morelos,Mor.,3,Axochiapan,18.502406,-98.754079
17,Morelos,Mor.,4,Ayala,18.767087,-98.982142
17,Morelos,Mor.,5,Coatlán del Río,18.744186,-99.434801
17,Morelos,Mor.,6,Cuautla,18.812788,-98.955265
17,Morelos,Mor.,7,Cuernavaca,18.921783,-99.234897
17,Morelos,Mor.,8,Emiliano Zapata,18.840984,-99.183243
17,Morelos,Mor.,9,Huitzilac,19.029033,-99.267453
17,Morelos,Mor.,10,Jantetelco,18.715206,-98.777301
17,Morelos,Mor.,11,Jiutepec,18.881974,-99.177198
17,Morelos,Mor.,12,Jojutla,18.616566,-99.181044
17,Morelos,Mor.,13,Jonacatepec de Leandro Valle,18.68069,-98.803223
17,Morelos,Mor.,14,Mazatepec,18.733184,-99.366972
17,Morelos,Mor.,15,Miacatlán,18.769983,-99.360265
17,Morelos,Mor.,16,Ocuituco,18.877693,-98.775698
17,Morelos,Mor.,17,Puente de Ixtla,18.616875,-99.323701
17,Morelos,Mor.,18,Temixco,18.845273,-99.224143
17,Morelos,Mor.,19,Tepalcingo,18.594736,-98.844357
17,Morelos,Mor.,20,Tepoztlán,18.986457,-99.101227
17,Morelos,Mor.,21,Tetecala,18.728967,-99.398583
17,Morelos,Mor.,22,Tetela del Volcán,18.893525,-98.730066
17,Morelos,Mor.,23,Tlalnepantla,19.007927,-98.997352
17,Morelos,Mor.,24,Tlaltizapán de Zapata,18.682962,-99.118179
17,Morelos,Mor.,25,Tlaquiltenango,18.63003,-99.162662
17,Morelos,Mor.,26,Tlayacapan,18.956617,-98.983118
17,Morelos,Mor.,27,Totolapan,18.987223,-98.921439
17,Morelos,Mor.,28,Xochitepec,18.781866,-99.231463
17,Morelos,Mor.,29,Yautepec,18.886062,-99.060754
17,Morelos,Mor.,30,Yecapixtla,18.88342,-98.868144
17,Morelos,Mor.,31,Zacatepec,18.655408,-99.194279
17,Morelos,Mor.,32,Zacualpan de Amilpas,18.784393,-98.765423
17,Morelos,Mor.,33,Temoac,18.772315,-98.778043
18,Nayarit,Nay.,1,Acaponeta,22.489388,-105.360184
18,Nayarit,Nay.,2,Ahuacatlán,21.050587,-104.484664
18,Nayarit,Nay.,3,Amatlán de Cañas,20.807782,-104.405389
18,Nayarit,Nay.,4,Compostela,21.23753,-104.900597
18,Nayarit,Nay.,5,Huajicori,22.637261,-105.319985
18,Nayarit,Nay.,6,Ixtlán del Río,21.035055,-104.368911
18,Nayarit,Nay.,7,Jala,21.104821,-104.438217
18,Nayarit,Nay.,8,Xalisco,21.443687,-104.899736
18,Nayarit,Nay.,9,Del Nayar,22.251125,-104.517943
18,Nayarit,Nay.,10,Rosamorada,22.122545,-105.20413
18,Nayarit,Nay.,11,Ruíz,21.950253,-105.145057
18,Nayarit,Nay.,12,San Blas,21.541738,-105.286046
18,Nayarit,Nay.,13,San Pedro Lagunillas,21.221906,-104.75111
18,Nayarit,Nay.,14,Santa María del Oro,21.333189,-104.587207
18,Nayarit,Nay.,15,Santiago Ixcuintla,21.808336,-105.206044
18,Nayarit,Nay.,16,Tecuala,22.395041,-105.456034
18,Nayarit,Nay.,17,Tepic,21.507413,-104.893799
18,Nayarit,Nay.,18,Tuxpan,21.94479,-105.298087
18,Nayarit,Nay.,19,La Yesca,21.318885,-104.009764
18,Nayarit,Nay.,20,Bahía de Banderas,20.80676,-105.247924
19,Nuevo León,NL,1,Abasolo,25.945338,-100.399988
19,Nuevo León,NL,2,Agualeguas,26.310915,-99.539389
19,Nuevo León,NL,3,Los Aldamas,26.064143,-99.196733
19,Nuevo León,NL,4,Allende,25.2869,-100.008324
19,Nuevo León,NL,5,Anáhuac,27.240647,-100.132436
19,Nuevo León,NL,6,Apodaca,25.781294,-100.189228
19,Nuevo León,NL,7,Aramberri,24.100586,-99.818067
19,Nuevo León,NL,8,Bustamante,26.534664,-100.502706
19,Nuevo León,NL,9,Cadereyta Jiménez,25.591008,-100.001594
19,Nuevo León,NL,10,El Carmen,25.932228,-100.364122
19,Nuevo León,NL,11,Cerralvo,26.089869,-99.614733
19,Nuevo León,NL,12,Ciénega de Flores,25.952069,-100.168108
19,Nuevo León,NL,13,China,25.705914,-99.239317
19,Nuevo León,NL,14,Doctor Arroyo,23.674692,-100.182256
19,Nuevo León,NL,15,Doctor Coss,25.925897,-99.184372
19,Nuevo León,NL,16,Doctor González,25.858829,-99.941869
19,Nuevo León,NL,17,Galeana,24.826267,-100.077428
19,Nuevo León,NL,18,García,25.800492,-100.585469
19,Nuevo León,NL,19,San Pedro Garza García,25.665169,-100.402467
19,Nuevo León,NL,20,General Bravo,25.793297,-99.181233
19,Nuevo León,NL,21,General Escobedo,25.807986,-100.322642
19,Nuevo León,NL,22,General Terán,25.257186,-99.685814
19,Nuevo León,NL,23,General Treviño,26.226969,-99.484081
19,Nuevo León,NL,24,General Zaragoza,23.973261,-99.772392
19,Nuevo León,NL,25,General Zuazua,25.896978,-100.108247
19,Nuevo León,NL,26,Guadalupe,25.677325,-100.259897
19,Nuevo León,NL,27,Los Herreras,25.905606,-99.403297
19,Nuevo León,NL,28,Higueras,25.961956,-100.01435
19,Nuevo León,NL,29,Hualahuises,24.884642,-99.673228
19,Nuevo León,NL,30,Iturbide,24.725978,-99.905261
19,Nuevo León,NL,31,Juárez,25.646225,-100.090881
19,Nuevo León,NL,32,Lampazos de Naranjo,27.025312,-100.504324
19,Nuevo León,NL,33,Linares,24.859653,-99.567869
19,Nuevo León,NL,34,Marín,25.879302,-100.034049
19,Nuevo León,NL,35,Melchor Ocampo,26.058525,-99.542283
19,Nuevo León,NL,36,Mier y Noriega,23.423119,-100.119669
19,Nuevo León,NL,37,Mina,26.001256,-100.531844
19,Nuevo León,NL,38,Montemorelos,25.189253,-99.826958
19,Nuevo León,NL,39,Monterrey,25.664697,-100.310892
19,Nuevo León,NL,40,Parás,26.498539,-99.525422
19,Nuevo León,NL,41,Pesquería,25.783258,-100.053678
19,Nuevo León,NL,42,Los Ramones,25.696392,-99.624031
19,Nuevo León,NL,43,Rayones,25.018122,-100.073214
19,Nuevo León,NL,44,Sabinas Hidalgo,26.498369,-100.181147
19,Nuevo León,NL,45,Salinas Victoria,25.959567,-100.291506
19,Nuevo León,NL,46,San Nicolás de los Garza,25.755253,-100.289586
19,Nuevo León,NL,47,Hidalgo,25.97565,-100.446894
19,Nuevo León,NL,48,Santa Catarina,25.674364,-100.461747
19,Nuevo León,NL,49,Santiago,25.4271,-100.153011
19,Nuevo León,NL,50,Vallecillo,26.659631,-99.986633
19,Nuevo León,NL,51,Villaldama,26.498225,-100.424561
20,Oaxaca,Oax.,1,Abejones,17.435752,-96.608174
20,Oaxaca,Oax.,2,Acatlán de Pérez Figueroa,18.538563,-96.60761
20,Oaxaca,Oax.,3,Asunción Cacalotepec,17.035264,-95.956562
20,Oaxaca,Oax.,4,Asunción Cuyotepeji,17.930901,-97.674353
20,Oaxaca,Oax.,5,Asunción Ixtaltepec,16.50384,-95.057045
20,Oaxaca,Oax.,6,Asunción Nochixtlán,17.458936,-97.225199
20,Oaxaca,Oax.,7,Asunción Ocotlán,16.759179,-96.721326
20,Oaxaca,Oax.,8,Asunción Tlacolulita,16.300263,-95.726305
20,Oaxaca,Oax.,9,Ayotzintepec,17.676709,-96.133271
20,Oaxaca,Oax.,10,El Barrio de la Soledad,16.803935,-95.11219
20,Oaxaca,Oax.,11,Calihualá,17.532858,-98.278376
20,Oaxaca,Oax.,12,Candelaria Loxicha,15.926334,-96.491919
20,Oaxaca,Oax.,13,Ciénega de Zimatlán,16.897088,-96.766618
20,Oaxaca,Oax.,14,Ciudad Ixtepec,16.567698,-95.098713
20,Oaxaca,Oax.,15,Coatecas Altas,16.536759,-96.664981
20,Oaxaca,Oax.,16,Coicoyán de las Flores,17.272898,-98.276094
20,Oaxaca,Oax.,17,La Compañía,16.55823,-96.81998
20,Oaxaca,Oax.,18,Concepción Buenavista,17.878533,-97.400233
20,Oaxaca,Oax.,19,Concepción Pápalo,17.841365,-96.88136
20,Oaxaca,Oax.,20,Constancia del Rosario,17.037822,-97.941458
20,Oaxaca,Oax.,21,Cosolapa,18.601787,-96.682386
20,Oaxaca,Oax.,22,Cosoltepec,18.141977,-97.790672
20,Oaxaca,Oax.,23,Cuilápam de Guerrero,16.996001,-96.780591
20,Oaxaca,Oax.,24,Cuyamecalco Villa de Zaragoza,17.965083,-96.831376
20,Oaxaca,Oax.,25,Chahuites,16.287609,-94.195824
20,Oaxaca,Oax.,26,Chalcatongo de Hidalgo,17.032029,-97.570989
20,Oaxaca,Oax.,27,Chiquihuitlán de Benito Juárez,17.995439,-96.745448
20,Oaxaca,Oax.,28,Heroica Ciudad de Ejutla de Crespo,16.564276,-96.731901
20,Oaxaca,Oax.,29,Eloxochitlán de Flores Magón,18.176881,-96.876091
20,Oaxaca,Oax.,30,El Espinal,16.48571,-95.042836
20,Oaxaca,Oax.,31,Tamazulápam del Espíritu Santo,17.054436,-96.065106
20,Oaxaca,Oax.,32,Fresnillo de Trujano,17.908013,-98.136301
20,Oaxaca,Oax.,33,Guadalupe Etla,17.171637,-96.810576
20,Oaxaca,Oax.,34,Guadalupe de Ramírez,17.756051,-98.164394
20,Oaxaca,Oax.,35,Guelatao de Juárez,17.318173,-96.493683
20,Oaxaca,Oax.,36,Guevea de Humboldt,16.792614,-95.368056
20,Oaxaca,Oax.,37,Mesones Hidalgo,16.915356,-97.966546
20,Oaxaca,Oax.,38,Villa Hidalgo,17.185888,-96.178834
20,Oaxaca,Oax.,39,Heroica Ciudad de Huajuapan de León,17.806837,-97.776236
20,Oaxaca,Oax.,40,Huautepec,18.101978,-96.797299
20,Oaxaca,Oax.,41,Huautla de Jiménez,18.130377,-96.846162
20,Oaxaca,Oax.,42,Ixtlán de Juárez,17.331529,-96.487802
20,Oaxaca,Oax.,43,Heroica Ciudad de Juchitán de Zaragoza,16.433308,-95.021633
20,Oaxaca,Oax.,44,Loma Bonita,18.109871,-95.879976
20,Oaxaca,Oax.,45,Magdalena Apasco,17.242063,-96.821091
20,Oaxaca,Oax.,46,Magdalena Jaltepec,17.323621,-97.221277
20,Oaxaca,Oax.,47,Santa Magdalena Jicotlán,17.807017,-97.470653
20,Oaxaca,Oax.,48,Magdalena Mixtepec,16.896112,-96.907728
20,Oaxaca,Oax.,49,Magdalena Ocotlán,16.709455,-96.712365
20,Oaxaca,Oax.,50,Magdalena Peñasco,17.236252,-97.551539
20,Oaxaca,Oax.,51,Magdalena Teitipac,16.906621,-96.558739
20,Oaxaca,Oax.,52,Magdalena Tequisistlán,16.398917,-95.602909
20,Oaxaca,Oax.,53,Magdalena Tlacotepec,16.503966,-95.203306
20,Oaxaca,Oax.,54,Magdalena Zahuatlán,17.388426,-97.229021
20,Oaxaca,Oax.,55,Mariscala de Juárez,17.860506,-98.141621
20,Oaxaca,Oax.,56,Mártires de Tacubaya,16.537986,-98.250913
20,Oaxaca,Oax.,57,Matías Romero Avendaño,16.877889,-95.042149
20,Oaxaca,Oax.,58,Mazatlán Villa de Flores,18.032564,-96.913721
20,Oaxaca,Oax.,59,Miahuatlán de Porfirio Díaz,16.328478,-96.596524
20,Oaxaca,Oax.,60,Mixistlán de la Reforma,17.146838,-96.112028
20,Oaxaca,Oax.,61,Monjas,16.367186,-96.63677
20,Oaxaca,Oax.,62,Natividad,17.296876,-96.433294
20,Oaxaca,Oax.,63,Nazareno Etla,17.17799,-96.824002
20,Oaxaca,Oax.,64,Nejapa de Madero,16.608181,-95.98045
20,Oaxaca,Oax.,65,Ixpantepec Nieves,17.506686,-98.044862
20,Oaxaca,Oax.,66,Santiago Niltepec,16.562093,-94.613004
20,Oaxaca,Oax.,67,Oaxaca de Juárez,17.059993,-96.72545
20,Oaxaca,Oax.,68,Ocotlán de Morelos,16.791641,-96.675064
20,Oaxaca,Oax.,69,La Pe,16.629959,-96.799658
20,Oaxaca,Oax.,70,Pinotepa de Don Luis,16.428442,-97.977435
20,Oaxaca,Oax.,71,Pluma Hidalgo,15.925846,-96.419443
20,Oaxaca,Oax.,72,San José del Progreso,16.685128,-96.685529
20,Oaxaca,Oax.,73,Putla Villa de Guerrero,17.026205,-97.928153
20,Oaxaca,Oax.,74,Santa Catarina Quioquitani,16.315654,-96.284965
20,Oaxaca,Oax.,75,Reforma de Pineda,16.399319,-94.458434
20,Oaxaca,Oax.,76,La Reforma,16.623315,-97.844498
20,Oaxaca,Oax.,77,Reyes Etla,17.205556,-96.810093
20,Oaxaca,Oax.,78,Rojas de Cuauhtémoc,17.008284,-96.618646
20,Oaxaca,Oax.,79,Salina Cruz,16.175885,-95.192159
20,Oaxaca,Oax.,80,San Agustín Amatengo,16.509943,-96.789325
20,Oaxaca,Oax.,81,San Agustín Atenango,17.611699,-98.015183
20,Oaxaca,Oax.,82,San Agustín Chayuco,16.402382,-97.807518
20,Oaxaca,Oax.,83,San Agustín de las Juntas,17.01166,-96.711441
20,Oaxaca,Oax.,84,San Agustín Etla,17.189083,-96.764424
20,Oaxaca,Oax.,85,San Agustín Loxicha,16.016609,-96.616764
20,Oaxaca,Oax.,86,San Agustín Tlacotepec,17.203684,-97.5179
20,Oaxaca,Oax.,87,San Agustín Yatareni,17.081212,-96.668117
20,Oaxaca,Oax.,88,San Andrés Cabecera Nueva,16.888416,-97.68099
20,Oaxaca,Oax.,89,San Andrés Dinicuiti,17.688115,-97.726751
20,Oaxaca,Oax.,90,San Andrés Huaxpaltepec,16.329046,-97.916349
20,Oaxaca,Oax.,91,San Andrés Huayápam,17.102543,-96.666239
20,Oaxaca,Oax.,92,San Andrés Ixtlahuaca,17.070874,-96.825177
20,Oaxaca,Oax.,93,San Andrés Lagunas,17.574427,-97.522746
20,Oaxaca,Oax.,94,San Andrés Nuxiño,17.238358,-97.105271
20,Oaxaca,Oax.,95,San Andrés Paxtlán,16.215636,-96.50758
20,Oaxaca,Oax.,96,San Andrés Sinaxtla,17.468502,-97.283811
20,Oaxaca,Oax.,97,San Andrés Solaga,17.271028,-96.236895
20,Oaxaca,Oax.,98,San Andrés Teotilálpam,17.954131,-96.656588
20,Oaxaca,Oax.,99,San Andrés Tepetlapa,17.665833,-98.391687
20,Oaxaca,Oax.,100,San Andrés Yaá,17.292578,-96.153616
20,Oaxaca,Oax.,101,San Andrés Zabache,16.600149,-96.857736
20,Oaxaca,Oax.,102,San Andrés Zautla,17.186388,-96.86349
20,Oaxaca,Oax.,103,San Antonino Castillo Velasco,16.803228,-96.68464
20,Oaxaca,Oax.,104,San Antonino el Alto,16.815701,-97.029374
20,Oaxaca,Oax.,105,San Antonino Monte Verde,17.533614,-97.720629
20,Oaxaca,Oax.,106,San Antonio Acutla,17.74403,-97.500305
20,Oaxaca,Oax.,107,San Antonio de la Cal,17.031313,-96.699284
20,Oaxaca,Oax.,108,San Antonio Huitepec,16.927331,-97.147422
20,Oaxaca,Oax.,109,San Antonio Nanahuatípam,18.130299,-97.123645
20,Oaxaca,Oax.,110,San Antonio Sinicahua,17.151574,-97.567959
20,Oaxaca,Oax.,111,San Antonio Tepetlapa,16.542361,-98.066226
20,Oaxaca,Oax.,112,San Baltazar Chichicápam,16.762097,-96.489681
20,Oaxaca,Oax.,113,San Baltazar Loxicha,16.0733,-96.790321
20,Oaxaca,Oax.,114,San Baltazar Yatzachi el Bajo,17.228157,-96.219811
20,Oaxaca,Oax.,115,San Bartolo Coyotepec,16.958281,-96.70765
20,Oaxaca,Oax.,116,San Bartolomé Ayautla,18.0318,-96.671509
20,Oaxaca,Oax.,117,San Bartolomé Loxicha,15.97039,-96.711016
20,Oaxaca,Oax.,118,San Bartolomé Quialana,16.901888,-96.501206
20,Oaxaca,Oax.,119,San Bartolomé Yucuañe,17.242547,-97.447929
20,Oaxaca,Oax.,120,San Bartolomé Zoogocho,17.240789,-96.243051
20,Oaxaca,Oax.,121,San Bartolo Soyaltepec,17.590641,-97.308935
20,Oaxaca,Oax.,122,San Bartolo Yautepec,16.430741,-95.973112
20,Oaxaca,Oax.,123,San Bernardo Mixtepec,16.824661,-96.898666
20,Oaxaca,Oax.,124,San Blas Atempa,16.326322,-95.227546
20,Oaxaca,Oax.,125,San Carlos Yautepec,16.500607,-96.106704
20,Oaxaca,Oax.,126,San Cristóbal Amatlán,16.318408,-96.410016
20,Oaxaca,Oax.,127,San Cristóbal Amoltepec,17.284533,-97.569853
20,Oaxaca,Oax.,128,San Cristóbal Lachirioag,17.335972,-96.165047
20,Oaxaca,Oax.,129,San Cristóbal Suchixtlahuaca,17.727554,-97.366656
20,Oaxaca,Oax.,130,San Dionisio del Mar,16.320539,-94.757003
20,Oaxaca,Oax.,131,San Dionisio Ocotepec,16.797754,-96.396037
20,Oaxaca,Oax.,132,San Dionisio Ocotlán,16.746444,-96.680835
20,Oaxaca,Oax.,133,San Esteban Atatlahuca,17.066549,-97.677769
20,Oaxaca,Oax.,134,San Felipe Jalapa de Díaz,18.071283,-96.536115
20,Oaxaca,Oax.,135,San Felipe Tejalápam,17.111401,-96.853258
20,Oaxaca,Oax.,136,San Felipe Usila,17.879395,-96.528363
20,Oaxaca,Oax.,137,San Francisco Cahuacuá,16.893563,-97.305594
20,Oaxaca,Oax.,138,San Francisco Cajonos,17.172094,-96.251464
20,Oaxaca,Oax.,139,San Francisco Chapulapa,17.940951,-96.754408
20,Oaxaca,Oax.,140,San Francisco Chindúa,17.428581,-97.312791
20,Oaxaca,Oax.,141,San Francisco del Mar,16.233446,-94.632276
20,Oaxaca,Oax.,142,San Francisco Huehuetlán,18.197594,-96.947821
20,Oaxaca,Oax.,143,San Francisco Ixhuatán,16.352357,-94.483828
20,Oaxaca,Oax.,144,San Francisco Jaltepetongo,17.385714,-97.262854
20,Oaxaca,Oax.,145,San Francisco Lachigoló,17.011407,-96.598516
20,Oaxaca,Oax.,146,San Francisco Logueche,16.352279,-96.377979
20,Oaxaca,Oax.,147,San Francisco Nuxaño,17.380833,-97.343951
20,Oaxaca,Oax.,148,San Francisco Ozolotepec,16.100539,-96.220682
20,Oaxaca,Oax.,149,San Francisco Sola,16.514966,-96.9744
20,Oaxaca,Oax.,150,San Francisco Telixtlahuaca,17.296596,-96.904413
20,Oaxaca,Oax.,151,San Francisco Teopan,17.851128,-97.492531
20,Oaxaca,Oax.,152,San Francisco Tlapancingo,17.484124,-98.268909
20,Oaxaca,Oax.,153,San Gabriel Mixtepec,16.094423,-97.079499
20,Oaxaca,Oax.,154,San Ildefonso Amatlán,16.334095,-96.491556
20,Oaxaca,Oax.,155,San Ildefonso Sola,16.519812,-96.983668
20,Oaxaca,Oax.,156,San Ildefonso Villa Alta,17.339011,-96.153014
20,Oaxaca,Oax.,157,San Jacinto Amilpas,17.100807,-96.762562
20,Oaxaca,Oax.,158,San Jacinto Tlacotepec,16.520368,-97.385998
20,Oaxaca,Oax.,159,San Jerónimo Coatlán,16.232721,-96.869294
20,Oaxaca,Oax.,160,San Jerónimo Silacayoapilla,17.80963,-97.845933
20,Oaxaca,Oax.,161,San Jerónimo Sosola,17.366559,-97.032614
20,Oaxaca,Oax.,162,San Jerónimo Taviche,16.713679,-96.594263
20,Oaxaca,Oax.,163,San Jerónimo Tecóatl,18.166914,-96.9132
20,Oaxaca,Oax.,164,San Jorge Nuchita,17.655954,-98.10613
20,Oaxaca,Oax.,165,San José Ayuquila,17.941788,-97.969274
20,Oaxaca,Oax.,166,San José Chiltepec,17.945353,-96.170537
20,Oaxaca,Oax.,167,San José del Peñasco,16.316059,-96.501381
20,Oaxaca,Oax.,168,San José Estancia Grande,16.365203,-98.251286
20,Oaxaca,Oax.,169,San José Independencia,18.239824,-96.646128
20,Oaxaca,Oax.,170,San José Lachiguiri,16.378776,-96.336433
20,Oaxaca,Oax.,171,San José Tenango,18.150762,-96.717209
20,Oaxaca,Oax.,172,San Juan Achiutla,17.344245,-97.508873
20,Oaxaca,Oax.,173,San Juan Atepec,17.426393,-96.539133
20,Oaxaca,Oax.,174,Ánimas Trujano,16.988882,-96.713196
20,Oaxaca,Oax.,175,San Juan Bautista Atatlahuca,17.531096,-96.829941
20,Oaxaca,Oax.,176,San Juan Bautista Coixtlahuaca,17.724643,-97.323823
20,Oaxaca,Oax.,177,San Juan Bautista Cuicatlán,17.801548,-96.959567
20,Oaxaca,Oax.,178,San Juan Bautista Guelache,17.226545,-96.778505
20,Oaxaca,Oax.,179,San Juan Bautista Jayacatlán,17.423504,-96.822571
20,Oaxaca,Oax.,180,San Juan Bautista Lo de Soto,16.511515,-98.346803
20,Oaxaca,Oax.,181,San Juan Bautista Suchitepec,17.972718,-97.65982
20,Oaxaca,Oax.,182,San Juan Bautista Tlacoatzintepec,17.859441,-96.587088
20,Oaxaca,Oax.,183,San Juan Bautista Tlachichilco,17.622548,-98.343993
20,Oaxaca,Oax.,184,San Juan Bautista Tuxtepec,18.081165,-96.118482
20,Oaxaca,Oax.,185,San Juan Cacahuatepec,16.613734,-98.156092
20,Oaxaca,Oax.,186,San Juan Cieneguilla,17.851659,-98.280764
20,Oaxaca,Oax.,187,San Juan Coatzóspam,18.0497,-96.763325
20,Oaxaca,Oax.,188,San Juan Colorado,16.459666,-97.953989
20,Oaxaca,Oax.,189,San Juan Comaltepec,17.33818,-95.976846
20,Oaxaca,Oax.,190,San Juan Cotzocón,17.164002,-95.78231
20,Oaxaca,Oax.,191,San Juan Chicomezúchil,17.288975,-96.494917
20,Oaxaca,Oax.,192,San Juan Chilateca,16.828518,-96.672011
20,Oaxaca,Oax.,193,San Juan del Estado,17.273528,-96.799273
20,Oaxaca,Oax.,194,San Juan del Río,16.882527,-96.16047
20,Oaxaca,Oax.,195,San Juan Diuxi,17.281509,-97.374243
20,Oaxaca,Oax.,196,San Juan Evangelista Analco,17.405827,-96.53795
20,Oaxaca,Oax.,197,San Juan Guelavía,16.956763,-96.545832
20,Oaxaca,Oax.,198,San Juan Guichicovi,16.962829,-95.095094
20,Oaxaca,Oax.,199,San Juan Ihualtepec,17.739842,-98.288846
20,Oaxaca,Oax.,200,San Juan Juquila Mixes,16.935633,-95.918818
20,Oaxaca,Oax.,201,San Juan Juquila Vijanos,17.353813,-96.304015
20,Oaxaca,Oax.,202,San Juan Lachao,16.158538,-97.125108
20,Oaxaca,Oax.,203,San Juan Lachigalla,16.591718,-96.54884
20,Oaxaca,Oax.,204,San Juan Lajarcia,16.508444,-95.925591
20,Oaxaca,Oax.,205,San Juan Lalana,17.470891,-95.879883
20,Oaxaca,Oax.,206,San Juan de los Cués,18.046927,-97.059664
20,Oaxaca,Oax.,207,San Juan Mazatlán,17.031124,-95.446467
20,Oaxaca,Oax.,208,San Juan Mixtepec,17.305726,-97.831447
20,Oaxaca,Oax.,209,San Juan Mixtepec,16.277539,-96.299478
20,Oaxaca,Oax.,210,San Juan Ñumí,17.398289,-97.706421
20,Oaxaca,Oax.,211,San Juan Ozolotepec,16.133008,-96.259293
20,Oaxaca,Oax.,212,San Juan Petlapa,17.469302,-96.036834
20,Oaxaca,Oax.,213,San Juan Quiahije,16.301878,-97.316846
20,Oaxaca,Oax.,214,San Juan Quiotepec,17.600763,-96.588162
20,Oaxaca,Oax.,215,San Juan Sayultepec,17.453482,-97.284741
20,Oaxaca,Oax.,216,San Juan Tabaá,17.30503,-96.206992
20,Oaxaca,Oax.,217,San Juan Tamazola,17.160439,-97.226883
20,Oaxaca,Oax.,218,San Juan Teita,17.095262,-97.414313
20,Oaxaca,Oax.,219,San Juan Teitipac,16.934399,-96.608509
20,Oaxaca,Oax.,220,San Juan Tepeuxila,17.722881,-96.841103
20,Oaxaca,Oax.,221,San Juan Teposcolula,17.550645,-97.424684
20,Oaxaca,Oax.,222,San Juan Yaeé,17.429087,-96.283846
20,Oaxaca,Oax.,223,San Juan Yatzona,17.402424,-96.169244
20,Oaxaca,Oax.,224,San Juan Yucuita,17.512253,-97.270358
20,Oaxaca,Oax.,225,San Lorenzo,16.394262,-97.874836
20,Oaxaca,Oax.,226,San Lorenzo Albarradas,16.907226,-96.259648
20,Oaxaca,Oax.,227,San Lorenzo Cacaotepec,17.129359,-96.801996
20,Oaxaca,Oax.,228,San Lorenzo Cuaunecuiltitla,18.206453,-96.913057
20,Oaxaca,Oax.,229,San Lorenzo Texmelúcan,16.585491,-97.198974
20,Oaxaca,Oax.,230,San Lorenzo Victoria,17.668356,-98.120274
20,Oaxaca,Oax.,231,San Lucas Camotlán,16.943163,-95.713144
20,Oaxaca,Oax.,232,San Lucas Ojitlán,18.057503,-96.397763
20,Oaxaca,Oax.,233,San Lucas Quiaviní,16.894802,-96.468094
20,Oaxaca,Oax.,234,San Lucas Zoquiápam,18.13616,-96.906429
20,Oaxaca,Oax.,235,San Luis Amatlán,16.389468,-96.497115
20,Oaxaca,Oax.,236,San Marcial Ozolotepec,16.089257,-96.405892
20,Oaxaca,Oax.,237,San Marcos Arteaga,17.719603,-97.861138
20,Oaxaca,Oax.,238,San Martín de los Cansecos,16.656476,-96.729005
20,Oaxaca,Oax.,239,San Martín Huamelúlpam,17.397404,-97.602352
20,Oaxaca,Oax.,240,San Martín Itunyoso,17.229019,-97.881477
20,Oaxaca,Oax.,241,San Martín Lachilá,16.610864,-96.849372
20,Oaxaca,Oax.,242,San Martín Peras,17.360511,-98.238444
20,Oaxaca,Oax.,243,San Martín Tilcajete,16.858948,-96.695571
20,Oaxaca,Oax.,244,San Martín Toxpalan,18.100724,-97.059027
20,Oaxaca,Oax.,245,San Martín Zacatepec,17.807946,-98.060864
20,Oaxaca,Oax.,246,San Mateo Cajonos,17.161776,-96.208976
20,Oaxaca,Oax.,247,Capulálpam de Méndez,17.306421,-96.44598
20,Oaxaca,Oax.,248,San Mateo del Mar,16.2097,-94.981892
20,Oaxaca,Oax.,249,San Mateo Yoloxochitlán,18.143675,-96.868415
20,Oaxaca,Oax.,250,San Mateo Etlatongo,17.414836,-97.27174
20,Oaxaca,Oax.,251,San Mateo Nejápam,17.655588,-98.416994
20,Oaxaca,Oax.,252,San Mateo Peñasco,17.150794,-97.533645
20,Oaxaca,Oax.,253,San Mateo Piñas,15.999508,-96.335189
20,Oaxaca,Oax.,254,San Mateo Río Hondo,16.14423,-96.448448
20,Oaxaca,Oax.,255,San Mateo Sindihui,17.004233,-97.351233
20,Oaxaca,Oax.,256,San Mateo Tlapiltepec,17.810589,-97.431183
20,Oaxaca,Oax.,257,San Melchor Betaza,17.252396,-96.154355
20,Oaxaca,Oax.,258,San Miguel Achiutla,17.306252,-97.489374
20,Oaxaca,Oax.,259,San Miguel Ahuehuetitlán,17.671281,-98.320847
20,Oaxaca,Oax.,260,San Miguel Aloápam,17.412913,-96.691465
20,Oaxaca,Oax.,261,San Miguel Amatitlán,17.891389,-98.025568
20,Oaxaca,Oax.,262,San Miguel Amatlán,17.275525,-96.47175
20,Oaxaca,Oax.,263,San Miguel Coatlán,16.196313,-96.694114
20,Oaxaca,Oax.,264,San Miguel Chicahua,17.636943,-97.194883
20,Oaxaca,Oax.,265,San Miguel Chimalapa,16.714515,-94.748212
20,Oaxaca,Oax.,266,San Miguel del Puerto,15.921633,-96.174852
20,Oaxaca,Oax.,267,San Miguel del Río,17.321658,-96.569221
20,Oaxaca,Oax.,268,San Miguel Ejutla,16.580445,-96.739378
20,Oaxaca,Oax.,269,San Miguel el Grande,17.046741,-97.622169
20,Oaxaca,Oax.,270,San Miguel Huautla,17.745821,-97.137519
20,Oaxaca,Oax.,271,San Miguel Mixtepec,16.778101,-96.957324
20,Oaxaca,Oax.,272,San Miguel Panixtlahuaca,16.260031,-97.379643
20,Oaxaca,Oax.,273,San Miguel Peras,16.937923,-97.009967
20,Oaxaca,Oax.,274,San Miguel Piedras,16.999683,-97.2327
20,Oaxaca,Oax.,275,San Miguel Quetzaltepec,16.975487,-95.76168
20,Oaxaca,Oax.,276,San Miguel Santa Flor,17.921083,-96.799301
20,Oaxaca,Oax.,277,Villa Sola de Vega,16.514758,-96.978014
20,Oaxaca,Oax.,278,San Miguel Soyaltepec,18.240372,-96.403581
20,Oaxaca,Oax.,279,San Miguel Suchixtepec,16.094004,-96.466409
20,Oaxaca,Oax.,280,Villa Talea de Castro,17.360003,-96.249921
20,Oaxaca,Oax.,281,San Miguel Tecomatlán,17.394044,-97.267991
20,Oaxaca,Oax.,282,San Miguel Tenango,16.267321,-95.592522
20,Oaxaca,Oax.,283,San Miguel Tequixtepec,17.802861,-97.341655
20,Oaxaca,Oax.,284,San Miguel Tilquiápam,16.781942,-96.581556
20,Oaxaca,Oax.,285,San Miguel Tlacamama,16.416729,-98.063217
20,Oaxaca,Oax.,286,San Miguel Tlacotepec,17.453624,-98.007239
20,Oaxaca,Oax.,287,San Miguel Tulancingo,17.75124,-97.441511
20,Oaxaca,Oax.,288,San Miguel Yotao,17.370464,-96.337235
20,Oaxaca,Oax.,289,San Nicolás,16.415956,-96.740824
20,Oaxaca,Oax.,290,San Nicolás Hidalgo,17.782919,-98.142583
20,Oaxaca,Oax.,291,San Pablo Coatlán,16.223978,-96.782999
20,Oaxaca,Oax.,292,San Pablo Cuatro Venados,16.982708,-96.89111
20,Oaxaca,Oax.,293,San Pablo Etla,17.145506,-96.76449
20,Oaxaca,Oax.,294,San Pablo Huitzo,17.277367,-96.884496
20,Oaxaca,Oax.,295,San Pablo Huixtepec,16.826736,-96.781005
20,Oaxaca,Oax.,296,San Pablo Macuiltianguis,17.534291,-96.553561
20,Oaxaca,Oax.,297,San Pablo Tijaltepec,17.017658,-97.499963
20,Oaxaca,Oax.,298,San Pablo Villa de Mitla,16.92186,-96.362155
20,Oaxaca,Oax.,299,San Pablo Yaganiza,17.146083,-96.229575
20,Oaxaca,Oax.,300,San Pedro Amuzgos,16.653904,-98.089927
20,Oaxaca,Oax.,301,San Pedro Apóstol,16.735146,-96.726033
20,Oaxaca,Oax.,302,San Pedro Atoyac,16.489084,-97.986977
20,Oaxaca,Oax.,303,San Pedro Cajonos,17.168671,-96.260639
20,Oaxaca,Oax.,304,San Pedro Coxcaltepec Cántaros,17.498849,-97.135813
20,Oaxaca,Oax.,305,San Pedro Comitancillo,16.490304,-95.159878
20,Oaxaca,Oax.,306,San Pedro el Alto,16.033616,-96.473723
20,Oaxaca,Oax.,307,San Pedro Huamelula,16.029032,-95.668856
20,Oaxaca,Oax.,308,San Pedro Huilotepec,16.243657,-95.152934
20,Oaxaca,Oax.,309,San Pedro Ixcatlán,18.14566,-96.510622
20,Oaxaca,Oax.,310,San Pedro Ixtlahuaca,17.063276,-96.820094
20,Oaxaca,Oax.,311,San Pedro Jaltepetongo,17.68785,-97.03494
20,Oaxaca,Oax.,312,San Pedro Jicayán,16.452186,-98.015199
20,Oaxaca,Oax.,313,San Pedro Jocotipac,17.76856,-97.080196
20,Oaxaca,Oax.,314,San Pedro Juchatengo,16.340952,-97.087321
20,Oaxaca,Oax.,315,San Pedro Mártir,16.744489,-96.712218
20,Oaxaca,Oax.,316,San Pedro Mártir Quiechapa,16.415227,-96.247539
20,Oaxaca,Oax.,317,San Pedro Mártir Yucuxaco,17.432628,-97.610076
20,Oaxaca,Oax.,318,San Pedro Mixtepec,15.982644,-97.083832
20,Oaxaca,Oax.,319,San Pedro Mixtepec,16.271822,-96.28272
20,Oaxaca,Oax.,320,San Pedro Molinos,17.104639,-97.541124
20,Oaxaca,Oax.,321,San Pedro Nopala,17.806294,-97.541307
20,Oaxaca,Oax.,322,San Pedro Ocopetatillo,18.184936,-96.913153
20,Oaxaca,Oax.,323,San Pedro Ocotepec,16.955419,-95.846751
20,Oaxaca,Oax.,324,San Pedro Pochutla,15.746341,-96.46523
20,Oaxaca,Oax.,325,San Pedro Quiatoni,16.7832,-96.031551
20,Oaxaca,Oax.,326,San Pedro Sochiápam,17.825141,-96.6644
20,Oaxaca,Oax.,327,San Pedro Tapanatepec,16.367249,-94.193848
20,Oaxaca,Oax.,328,San Pedro Taviche,16.637849,-96.537598
20,Oaxaca,Oax.,329,San Pedro Teozacoalco,17.017126,-97.286098
20,Oaxaca,Oax.,330,San Pedro Teutila,17.977028,-96.705671
20,Oaxaca,Oax.,331,San Pedro Tidaá,17.340764,-97.377273
20,Oaxaca,Oax.,332,San Pedro Topiltepec,17.437201,-97.343712
20,Oaxaca,Oax.,333,San Pedro Totolápam,16.666444,-96.301907
20,Oaxaca,Oax.,334,Villa de Tututepec,16.129895,-97.608541
20,Oaxaca,Oax.,335,San Pedro Yaneri,17.419356,-96.354571
20,Oaxaca,Oax.,336,San Pedro Yólox,17.588436,-96.551576
20,Oaxaca,Oax.,337,San Pedro y San Pablo Ayutla,17.027151,-96.077082
20,Oaxaca,Oax.,338,Villa de Etla,17.207528,-96.800579
20,Oaxaca,Oax.,339,San Pedro y San Pablo Teposcolula,17.51207,-97.488189
20,Oaxaca,Oax.,340,San Pedro y San Pablo Tequixtepec,18.060656,-97.717846
20,Oaxaca,Oax.,341,San Pedro Yucunama,17.561004,-97.482591
20,Oaxaca,Oax.,342,San Raymundo Jalpan,16.970396,-96.755498
20,Oaxaca,Oax.,343,San Sebastián Abasolo,16.994675,-96.588859
20,Oaxaca,Oax.,344,San Sebastián Coatlán,16.201259,-96.827539
20,Oaxaca,Oax.,345,San Sebastián Ixcapa,16.543667,-98.144487
20,Oaxaca,Oax.,346,San Sebastián Nicananduta,17.517897,-97.683268
20,Oaxaca,Oax.,347,San Sebastián Río Hondo,16.182831,-96.464061
20,Oaxaca,Oax.,348,San Sebastián Tecomaxtlahuaca,17.345856,-98.031174
20,Oaxaca,Oax.,349,San Sebastián Teitipac,16.951425,-96.614019
20,Oaxaca,Oax.,350,San Sebastián Tutla,17.058476,-96.67212
20,Oaxaca,Oax.,351,San Simón Almolongas,16.407408,-96.719672
20,Oaxaca,Oax.,352,San Simón Zahuatlán,17.828853,-98.004528
20,Oaxaca,Oax.,353,Santa Ana,16.340638,-96.71761
20,Oaxaca,Oax.,354,Santa Ana Ateixtlahuaca,18.210578,-96.906383
20,Oaxaca,Oax.,355,Santa Ana Cuauhtémoc,17.983841,-96.794698
20,Oaxaca,Oax.,356,Santa Ana del Valle,16.994827,-96.471675
20,Oaxaca,Oax.,357,Santa Ana Tavela,16.65465,-95.911568
20,Oaxaca,Oax.,358,Santa Ana Tlapacoyan,16.744003,-96.837084
20,Oaxaca,Oax.,359,Santa Ana Yareni,17.397788,-96.610779
20,Oaxaca,Oax.,360,Santa Ana Zegache,16.837875,-96.725939
20,Oaxaca,Oax.,361,Santa Catalina Quierí,16.322201,-96.265858
20,Oaxaca,Oax.,362,Santa Catarina Cuixtla,16.304396,-96.644744
20,Oaxaca,Oax.,363,Santa Catarina Ixtepeji,17.265549,-96.561699
20,Oaxaca,Oax.,364,Santa Catarina Juquila,16.237009,-97.292473
20,Oaxaca,Oax.,365,Santa Catarina Lachatao,17.268448,-96.472934
20,Oaxaca,Oax.,366,Santa Catarina Loxicha,16.069504,-96.754866
20,Oaxaca,Oax.,367,Santa Catarina Mechoacán,16.334434,-97.836026
20,Oaxaca,Oax.,368,Santa Catarina Minas,16.77919,-96.615456
20,Oaxaca,Oax.,369,Santa Catarina Quiané,16.880306,-96.740748
20,Oaxaca,Oax.,370,Santa Catarina Tayata,17.347805,-97.558379
20,Oaxaca,Oax.,371,Santa Catarina Ticuá,17.071236,-97.534859
20,Oaxaca,Oax.,372,Santa Catarina Yosonotú,17.02055,-97.662128
20,Oaxaca,Oax.,373,Santa Catarina Zapoquila,18.064558,-97.601655
20,Oaxaca,Oax.,374,Santa Cruz Acatepec,18.163762,-96.875319
20,Oaxaca,Oax.,375,Santa Cruz Amilpas,17.0587,-96.684017
20,Oaxaca,Oax.,376,Santa Cruz de Bravo,17.581374,-98.223989
20,Oaxaca,Oax.,377,Santa Cruz Itundujia,16.87493,-97.660551
20,Oaxaca,Oax.,378,Santa Cruz Mixtepec,16.792443,-96.882407
20,Oaxaca,Oax.,379,Santa Cruz Nundaco,17.174139,-97.723187
20,Oaxaca,Oax.,380,Santa Cruz Papalutla,16.959489,-96.584911
20,Oaxaca,Oax.,381,Santa Cruz Tacache de Mina,17.827661,-98.150788
20,Oaxaca,Oax.,382,Santa Cruz Tacahua,16.918901,-97.492166
20,Oaxaca,Oax.,383,Santa Cruz Tayata,17.357769,-97.568595
20,Oaxaca,Oax.,384,Santa Cruz Xitla,16.322437,-96.673129
20,Oaxaca,Oax.,385,Santa Cruz Xoxocotlán,17.027281,-96.734358
20,Oaxaca,Oax.,386,Santa Cruz Zenzontepec,16.535131,-97.495079
20,Oaxaca,Oax.,387,Santa Gertrudis,16.786595,-96.797211
20,Oaxaca,Oax.,388,Santa Inés del Monte,16.925767,-96.861687
20,Oaxaca,Oax.,389,Santa Inés Yatzeche,16.808673,-96.756324
20,Oaxaca,Oax.,390,Santa Lucía del Camino,17.064118,-96.694677
20,Oaxaca,Oax.,391,Santa Lucía Miahuatlán,16.186473,-96.618211
20,Oaxaca,Oax.,392,Santa Lucía Monteverde,16.971291,-97.666303
20,Oaxaca,Oax.,393,Santa Lucía Ocotlán,16.74219,-96.680396
20,Oaxaca,Oax.,394,Santa María Alotepec,17.092096,-95.854572
20,Oaxaca,Oax.,395,Santa María Apazco,17.634583,-97.100387
20,Oaxaca,Oax.,396,Santa María la Asunción,18.108224,-96.819365
20,Oaxaca,Oax.,397,Heroica Ciudad de Tlaxiaco,17.26747,-97.680492
20,Oaxaca,Oax.,398,Ayoquezco de Aldama,16.685666,-96.843114
20,Oaxaca,Oax.,399,Santa María Atzompa,17.102866,-96.779261
20,Oaxaca,Oax.,400,Santa María Camotlán,17.899561,-97.69338
20,Oaxaca,Oax.,401,Santa María Colotepec,15.897792,-96.938589
20,Oaxaca,Oax.,402,Santa María Cortijo,16.450803,-98.285716
20,Oaxaca,Oax.,403,Santa María Coyotepec,16.967161,-96.706736
20,Oaxaca,Oax.,404,Santa María Chachoápam,17.525156,-97.283505
20,Oaxaca,Oax.,405,Villa de Chilapa de Díaz,17.588329,-97.631912
20,Oaxaca,Oax.,406,Santa María Chilchotla,18.23424,-96.830541
20,Oaxaca,Oax.,407,Santa María Chimalapa,16.90992,-94.683022
20,Oaxaca,Oax.,408,Santa María del Rosario,17.351761,-97.59382
20,Oaxaca,Oax.,409,Santa María del Tule,17.046702,-96.636592
20,Oaxaca,Oax.,410,Santa María Ecatepec,16.284183,-95.88113
20,Oaxaca,Oax.,411,Santa María Guelacé,17.000877,-96.60283
20,Oaxaca,Oax.,412,Santa María Guienagati,16.737983,-95.354486
20,Oaxaca,Oax.,413,Santa María Huatulco,15.836111,-96.322093
20,Oaxaca,Oax.,414,Santa María Huazolotitlán,16.302222,-97.912861
20,Oaxaca,Oax.,415,Santa María Ipalapa,16.636219,-98.033824
20,Oaxaca,Oax.,416,Santa María Ixcatlán,17.851593,-97.190482
20,Oaxaca,Oax.,417,Santa María Jacatepec,17.860133,-96.211324
20,Oaxaca,Oax.,418,Santa María Jalapa del Marqués,16.440065,-95.443378
20,Oaxaca,Oax.,419,Santa María Jaltianguis,17.365613,-96.528271
20,Oaxaca,Oax.,420,Santa María Lachixío,16.727756,-97.019211
20,Oaxaca,Oax.,421,Santa María Mixtequilla,16.373708,-95.260473
20,Oaxaca,Oax.,422,Santa María Nativitas,17.661494,-97.334787
20,Oaxaca,Oax.,423,Santa María Nduayaco,17.411509,-97.496337
20,Oaxaca,Oax.,424,Santa María Ozolotepec,16.130841,-96.370067
20,Oaxaca,Oax.,425,Santa María Pápalo,17.78416,-96.797356
20,Oaxaca,Oax.,426,Santa María Peñoles,17.078915,-97.002446
20,Oaxaca,Oax.,427,Santa María Petapa,16.822429,-95.120039
20,Oaxaca,Oax.,428,Santa María Quiegolani,16.277213,-96.052003
20,Oaxaca,Oax.,429,Santa María Sola,16.566713,-97.013188
20,Oaxaca,Oax.,430,Santa María Tataltepec,17.142459,-97.395116
20,Oaxaca,Oax.,431,Santa María Tecomavaca,17.956257,-97.024437
20,Oaxaca,Oax.,432,Santa María Temaxcalapa,17.381099,-96.162478
20,Oaxaca,Oax.,433,Santa María Temaxcaltepec,16.163109,-97.194655
20,Oaxaca,Oax.,434,Santa María Teopoxco,18.166659,-96.955139
20,Oaxaca,Oax.,435,Santa María Tepantlali,16.997513,-96.01012
20,Oaxaca,Oax.,436,Santa María Texcatitlán,17.712905,-97.066689
20,Oaxaca,Oax.,437,Santa María Tlahuitoltepec,17.097537,-96.063252
20,Oaxaca,Oax.,438,Santa María Tlalixtac,17.951677,-96.738075
20,Oaxaca,Oax.,439,Santa María Tonameca,15.747139,-96.545365
20,Oaxaca,Oax.,440,Santa María Totolapilla,16.603228,-95.625455
20,Oaxaca,Oax.,441,Santa María Xadani,16.360301,-95.01985
20,Oaxaca,Oax.,442,Santa María Yalina,17.240471,-96.262781
20,Oaxaca,Oax.,443,Santa María Yavesía,17.234215,-96.429516
20,Oaxaca,Oax.,444,Santa María Yolotepec,16.876805,-97.505328
20,Oaxaca,Oax.,445,Santa María Yosoyúa,17.120186,-97.514792
20,Oaxaca,Oax.,446,Santa María Yucuhiti,17.018193,-97.769509
20,Oaxaca,Oax.,447,Santa María Zacatepec,16.763894,-97.989878
20,Oaxaca,Oax.,448,Santa María Zaniza,16.655098,-97.338544
20,Oaxaca,Oax.,449,Santa María Zoquitlán,16.55836,-96.352871
20,Oaxaca,Oax.,450,Santiago Amoltepec,16.640906,-97.494803
20,Oaxaca,Oax.,451,Santiago Apoala,17.648603,-97.136945
20,Oaxaca,Oax.,452,Santiago Apóstol,16.804263,-96.722414
20,Oaxaca,Oax.,453,Santiago Astata,15.987631,-95.675866
20,Oaxaca,Oax.,454,Santiago Atitlán,17.103973,-95.945797
20,Oaxaca,Oax.,455,Santiago Ayuquililla,17.935106,-97.958262
20,Oaxaca,Oax.,456,Santiago Cacaloxtepec,17.720238,-97.740486
20,Oaxaca,Oax.,457,Santiago Camotlán,17.446267,-96.184656
20,Oaxaca,Oax.,458,Santiago Comaltepec,17.564126,-96.547813
20,Oaxaca,Oax.,459,Santiago Chazumba,18.188768,-97.68054
20,Oaxaca,Oax.,460,Santiago Choápam,17.360612,-95.922623
20,Oaxaca,Oax.,461,Santiago del Río,17.455975,-98.08854
20,Oaxaca,Oax.,462,Santiago Huajolotitlán,17.82665,-97.731767
20,Oaxaca,Oax.,463,Santiago Huauclilla,17.450841,-97.071527
20,Oaxaca,Oax.,464,Santiago Ihuitlán Plumas,17.848474,-97.429743
20,Oaxaca,Oax.,465,Santiago Ixcuintepec,16.934806,-95.623106
20,Oaxaca,Oax.,466,Santiago Ixtayutla,16.565006,-97.651969
20,Oaxaca,Oax.,467,Santiago Jamiltepec,16.279458,-97.819682
20,Oaxaca,Oax.,468,Santiago Jocotepec,17.53568,-95.944416
20,Oaxaca,Oax.,469,Santiago Juxtlahuaca,17.33529,-98.012449
20,Oaxaca,Oax.,470,Santiago Lachiguiri,16.686459,-95.532658
20,Oaxaca,Oax.,471,Santiago Lalopa,17.417959,-96.248592
20,Oaxaca,Oax.,472,Santiago Laollaga,16.584887,-95.204579
20,Oaxaca,Oax.,473,Santiago Laxopa,17.219758,-96.313396
20,Oaxaca,Oax.,474,Santiago Llano Grande,16.489426,-98.289669
20,Oaxaca,Oax.,475,Santiago Matatlán,16.866099,-96.383423
20,Oaxaca,Oax.,476,Santiago Miltepec,17.984733,-97.689289
20,Oaxaca,Oax.,477,Santiago Minas,16.426183,-97.228153
20,Oaxaca,Oax.,478,Santiago Nacaltepec,17.505474,-96.916496
20,Oaxaca,Oax.,479,Santiago Nejapilla,17.420284,-97.372616
20,Oaxaca,Oax.,480,Santiago Nundiche,17.331792,-97.673498
20,Oaxaca,Oax.,481,Santiago Nuyoó,17.015173,-97.766539
20,Oaxaca,Oax.,482,Santiago Pinotepa Nacional,16.339009,-98.050348
20,Oaxaca,Oax.,483,Santiago Suchilquitongo,17.247126,-96.873686
20,Oaxaca,Oax.,484,Santiago Tamazola,17.669309,-98.2208
20,Oaxaca,Oax.,485,Santiago Tapextla,16.34097,-98.447474
20,Oaxaca,Oax.,486,Villa Tejúpam de la Unión,17.667088,-97.473521
20,Oaxaca,Oax.,487,Santiago Tenango,17.324921,-97.004104
20,Oaxaca,Oax.,488,Santiago Tepetlapa,17.782596,-97.401536
20,Oaxaca,Oax.,489,Santiago Tetepec,16.322271,-97.748254
20,Oaxaca,Oax.,490,Santiago Texcalcingo,18.208196,-96.968769
20,Oaxaca,Oax.,491,Santiago Textitlán,16.692724,-97.26032
20,Oaxaca,Oax.,492,Santiago Tilantongo,17.283077,-97.339804
20,Oaxaca,Oax.,493,Santiago Tillo,17.460285,-97.319723
20,Oaxaca,Oax.,494,Santiago Tlazoyaltepec,17.026902,-96.995495
20,Oaxaca,Oax.,495,Santiago Xanica,16.009469,-96.224926
20,Oaxaca,Oax.,496,Santiago Xiacuí,17.29312,-96.431628
20,Oaxaca,Oax.,497,Santiago Yaitepec,16.225571,-97.26936
20,Oaxaca,Oax.,498,Santiago Yaveo,17.335828,-95.700692
20,Oaxaca,Oax.,499,Santiago Yolomécatl,17.470933,-97.56975
20,Oaxaca,Oax.,500,Santiago Yosondúa,16.873377,-97.576609
20,Oaxaca,Oax.,501,Santiago Yucuyachi,17.608201,-98.196405
20,Oaxaca,Oax.,502,Santiago Zacatepec,17.159395,-95.914962
20,Oaxaca,Oax.,503,Santiago Zoochila,17.220566,-96.242139
20,Oaxaca,Oax.,504,Nuevo Zoquiápam,17.291322,-96.619984
20,Oaxaca,Oax.,505,Santo Domingo Ingenio,16.588492,-94.76863
20,Oaxaca,Oax.,506,Santo Domingo Albarradas,17.068044,-96.200094
20,Oaxaca,Oax.,507,Santo Domingo Armenta,16.332972,-98.378152
20,Oaxaca,Oax.,508,Santo Domingo Chihuitán,16.591886,-95.162369
20,Oaxaca,Oax.,509,Santo Domingo de Morelos,15.833004,-96.668076
20,Oaxaca,Oax.,510,Santo Domingo Ixcatlán,16.913927,-97.531934
20,Oaxaca,Oax.,511,Santo Domingo Nuxaá,17.221897,-97.12071
20,Oaxaca,Oax.,512,Santo Domingo Ozolotepec,16.150868,-96.310399
20,Oaxaca,Oax.,513,Santo Domingo Petapa,16.820669,-95.140423
20,Oaxaca,Oax.,514,Santo Domingo Roayaga,17.337631,-96.114573
20,Oaxaca,Oax.,515,Santo Domingo Tehuantepec,16.332058,-95.232049
20,Oaxaca,Oax.,516,Santo Domingo Teojomulco,16.589403,-97.226188
20,Oaxaca,Oax.,517,Santo Domingo Tepuxtepec,16.956887,-96.055406
20,Oaxaca,Oax.,518,Santo Domingo Tlatayápam,17.407468,-97.347023
20,Oaxaca,Oax.,519,Santo Domingo Tomaltepec,17.06042,-96.624358
20,Oaxaca,Oax.,520,Santo Domingo Tonalá,17.674612,-97.963932
20,Oaxaca,Oax.,521,Santo Domingo Tonaltepec,17.610857,-97.360082
20,Oaxaca,Oax.,522,Santo Domingo Xagacía,17.155543,-96.267961
20,Oaxaca,Oax.,523,Santo Domingo Yanhuitlán,17.528043,-97.342309
20,Oaxaca,Oax.,524,Santo Domingo Yodohino,17.616886,-97.683022
20,Oaxaca,Oax.,525,Santo Domingo Zanatepec,16.482804,-94.353903
20,Oaxaca,Oax.,526,Santos Reyes Nopala,16.106764,-97.144447
20,Oaxaca,Oax.,527,Santos Reyes Pápalo,17.804657,-96.860878
20,Oaxaca,Oax.,528,Santos Reyes Tepejillo,17.437756,-97.938323
20,Oaxaca,Oax.,529,Santos Reyes Yucuná,17.777741,-98.004527
20,Oaxaca,Oax.,530,Santo Tomás Jalieza,16.844378,-96.671033
20,Oaxaca,Oax.,531,Santo Tomás Mazaltepec,17.173527,-96.871533
20,Oaxaca,Oax.,532,Santo Tomás Ocotepec,17.145254,-97.762301
20,Oaxaca,Oax.,533,Santo Tomás Tamazulapan,16.272034,-96.585829
20,Oaxaca,Oax.,534,San Vicente Coatlán,16.386886,-96.844954
20,Oaxaca,Oax.,535,San Vicente Lachixío,16.704343,-97.019529
20,Oaxaca,Oax.,536,San Vicente Nuñú,17.456761,-97.442284
20,Oaxaca,Oax.,537,Silacayoápam,17.501447,-98.142585
20,Oaxaca,Oax.,538,Sitio de Xitlapehua,16.351036,-96.532603
20,Oaxaca,Oax.,539,Soledad Etla,17.171669,-96.820764
20,Oaxaca,Oax.,540,Villa de Tamazulápam del Progreso,17.673063,-97.572848
20,Oaxaca,Oax.,541,Tanetze de Zaragoza,17.376733,-96.302236
20,Oaxaca,Oax.,542,Taniche,16.566964,-96.753581
20,Oaxaca,Oax.,543,Tataltepec de Valdés,16.306406,-97.546069
20,Oaxaca,Oax.,544,Teococuilco de Marcos Pérez,17.351989,-96.614944
20,Oaxaca,Oax.,545,Teotitlán de Flores Magón,18.132334,-97.070704
20,Oaxaca,Oax.,546,Teotitlán del Valle,17.029579,-96.518949
20,Oaxaca,Oax.,547,Teotongo,17.726323,-97.536713
20,Oaxaca,Oax.,548,Tepelmeme Villa de Morelos,17.874806,-97.362198
20,Oaxaca,Oax.,549,"Heroica Villa Tezoatlán de Segura y Luna, Cuna de la Independencia de Oaxaca",17.654466,-97.808338
20,Oaxaca,Oax.,550,San Jerónimo Tlacochahuaya,17.008867,-96.581074
20,Oaxaca,Oax.,551,Tlacolula de Matamoros,16.955624,-96.479215
20,Oaxaca,Oax.,552,Tlacotepec Plumas,17.850777,-97.432829
20,Oaxaca,Oax.,553,Tlalixtac de Cabrera,17.074484,-96.648417
20,Oaxaca,Oax.,554,Totontepec Villa de Morelos,17.258634,-96.027355
20,Oaxaca,Oax.,555,Trinidad Zaachila,16.921227,-96.765343
20,Oaxaca,Oax.,556,La Trinidad Vista Hermosa,17.77263,-97.505751
20,Oaxaca,Oax.,557,Unión Hidalgo,16.472824,-94.828939
20,Oaxaca,Oax.,558,Valerio Trujano,17.771714,-96.980221
20,Oaxaca,Oax.,559,San Juan Bautista Valle Nacional,17.774953,-96.304045
20,Oaxaca,Oax.,560,Villa Díaz Ordaz,16.998548,-96.432537
20,Oaxaca,Oax.,561,Yaxe,16.725127,-96.472479
20,Oaxaca,Oax.,562,Magdalena Yodocono de Porfirio Díaz,17.385094,-97.354976
20,Oaxaca,Oax.,563,Yogana,16.461214,-96.788554
20,Oaxaca,Oax.,564,Yutanduchi de Guerrero,17.039455,-97.297499
20,Oaxaca,Oax.,565,Villa de Zaachila,16.950718,-96.750588
20,Oaxaca,Oax.,566,San Mateo Yucutindoo,16.87637,-97.238878
20,Oaxaca,Oax.,567,Zapotitlán Lagunas,17.755476,-98.389575
20,Oaxaca,Oax.,568,Zapotitlán Palmas,17.889863,-97.818148
20,Oaxaca,Oax.,569,Santa Inés de Zaragoza,17.228501,-97.159224
20,Oaxaca,Oax.,570,Zimatlán de Álvarez,16.866686,-96.785633
21,Puebla,Pue.,1,Acajete,19.10494,-97.952715
21,Puebla,Pue.,2,Acateno,20.130059,-97.210296
21,Puebla,Pue.,3,Acatlán,18.202301,-98.048606
21,Puebla,Pue.,4,Acatzingo,18.979455,-97.78546
21,Puebla,Pue.,5,Acteopan,18.76502,-98.715291
21,Puebla,Pue.,6,Ahuacatlán,20.005466,-97.860699
21,Puebla,Pue.,7,Ahuatlán,18.573011,-98.25523
21,Puebla,Pue.,8,Ahuazotepec,20.046047,-98.162348
21,Puebla,Pue.,9,Ahuehuetitla,18.210768,-98.221355
21,Puebla,Pue.,10,Ajalpan,18.377537,-97.258304
21,Puebla,Pue.,11,Albino Zertuche,18.017277,-98.540159
21,Puebla,Pue.,12,Aljojuca,19.100406,-97.531335
21,Puebla,Pue.,13,Altepexi,18.366767,-97.29918
21,Puebla,Pue.,14,Amixtlán,20.049437,-97.798917
21,Puebla,Pue.,15,Amozoc,19.044613,-98.044917
21,Puebla,Pue.,16,Aquixtla,19.796657,-97.936614
21,Puebla,Pue.,17,Atempan,19.8399,-97.459279
21,Puebla,Pue.,18,Atexcal,18.398351,-97.736817
21,Puebla,Pue.,19,Atlixco,18.908848,-98.434168
21,Puebla,Pue.,20,Atoyatempan,18.822567,-97.91375
21,Puebla,Pue.,21,Atzala,18.54482,-98.554276
21,Puebla,Pue.,22,Atzitzihuacán,18.823712,-98.582642
21,Puebla,Pue.,23,Atzitzintla,18.897382,-97.327388
21,Puebla,Pue.,24,Axutla,18.188554,-98.389403
21,Puebla,Pue.,25,Ayotoxco de Guerrero,20.097159,-97.410524
21,Puebla,Pue.,26,Calpan,19.107938,-98.459239
21,Puebla,Pue.,27,Caltepec,18.182308,-97.479371
21,Puebla,Pue.,28,Camocuautla,20.038488,-97.757727
21,Puebla,Pue.,29,Caxhuacan,20.063958,-97.606617
21,Puebla,Pue.,30,Coatepec,20.062145,-97.732266
21,Puebla,Pue.,31,Coatzingo,18.615143,-98.174216
21,Puebla,Pue.,32,Cohetzala,18.20642,-98.805889
21,Puebla,Pue.,33,Cohuecan,18.783205,-98.720489
21,Puebla,Pue.,34,Coronango,19.131102,-98.308074
21,Puebla,Pue.,35,Coxcatlán,18.266533,-97.147113
21,Puebla,Pue.,36,Coyomeapan,18.283748,-96.9925
21,Puebla,Pue.,37,Coyotepec,18.404416,-97.83078
21,Puebla,Pue.,38,Cuapiaxtla de Madero,18.916873,-97.825298
21,Puebla,Pue.,39,Cuautempan,19.912638,-97.796241
21,Puebla,Pue.,40,Cuautinchán,18.955714,-98.015976
21,Puebla,Pue.,41,Cuautlancingo,19.089347,-98.27331
21,Puebla,Pue.,42,Cuayuca de Andrade,18.486665,-98.183864
21,Puebla,Pue.,43,Cuetzalan del Progreso,20.01852,-97.520771
21,Puebla,Pue.,44,Cuyoaco,19.605338,-97.621851
21,Puebla,Pue.,45,Chalchicomula de Sesma,18.98826,-97.448496
21,Puebla,Pue.,46,Chapulco,18.620488,-97.411167
21,Puebla,Pue.,47,Chiautla,18.299651,-98.602781
21,Puebla,Pue.,48,Chiautzingo,19.202914,-98.468259
21,Puebla,Pue.,49,Chiconcuautla,20.094768,-97.939626
21,Puebla,Pue.,50,Chichiquila,19.200258,-97.06771
21,Puebla,Pue.,51,Chietla,18.519365,-98.578353
21,Puebla,Pue.,52,Chigmecatitlán,18.645566,-98.075621
21,Puebla,Pue.,53,Chignahuapan,19.838223,-98.030975
21,Puebla,Pue.,54,Chignautla,19.813925,-97.389418
21,Puebla,Pue.,55,Chila,17.970016,-97.86166
21,Puebla,Pue.,56,Chila de la Sal,18.1091,-98.484322
21,Puebla,Pue.,57,Honey,20.239214,-98.212138
21,Puebla,Pue.,58,Chilchotla,19.255202,-97.183893
21,Puebla,Pue.,59,Chinantla,18.200502,-98.263164
21,Puebla,Pue.,60,Domingo Arenas,19.142029,-98.457509
21,Puebla,Pue.,61,Eloxochitlán,18.498947,-96.954837
21,Puebla,Pue.,62,Epatlán,18.641787,-98.370789
21,Puebla,Pue.,63,Esperanza,18.858357,-97.375126
21,Puebla,Pue.,64,Francisco Z. Mena,20.733694,-97.852138
21,Puebla,Pue.,65,General Felipe Ángeles,18.993408,-97.708794
21,Puebla,Pue.,66,Guadalupe,18.091467,-98.120421
21,Puebla,Pue.,67,Guadalupe Victoria,19.289786,-97.342696
21,Puebla,Pue.,68,Hermenegildo Galeana,20.121734,-97.744621
21,Puebla,Pue.,69,Huaquechula,18.770708,-98.541532
21,Puebla,Pue.,70,Huatlatlauca,18.678774,-98.050772
21,Puebla,Pue.,71,Huauchinango,20.174698,-98.05134
21,Puebla,Pue.,72,Huehuetla,20.104138,-97.6249
21,Puebla,Pue.,73,Huehuetlán el Chico,18.373167,-98.687948
21,Puebla,Pue.,74,Huejotzingo,19.159008,-98.408033
21,Puebla,Pue.,75,Hueyapan,19.882558,-97.445863
21,Puebla,Pue.,76,Hueytamalco,19.939479,-97.289041
21,Puebla,Pue.,77,Hueytlalpan,20.025733,-97.698678
21,Puebla,Pue.,78,Huitzilan de Serdán,19.966249,-97.69354
21,Puebla,Pue.,79,Huitziltepec,18.769416,-97.880833
21,Puebla,Pue.,80,Atlequizayan,20.014008,-97.624086
21,Puebla,Pue.,81,Ixcamilpa de Guerrero,18.027043,-98.696573
21,Puebla,Pue.,82,Ixcaquixtla,18.460096,-97.832348
21,Puebla,Pue.,83,Ixtacamaxtitlán,19.623603,-97.81657
21,Puebla,Pue.,84,Ixtepec,20.024937,-97.646779
21,Puebla,Pue.,85,Izúcar de Matamoros,18.602231,-98.465406
21,Puebla,Pue.,86,Jalpan,20.480096,-97.942631
21,Puebla,Pue.,87,Jolalpan,18.320517,-98.844298
21,Puebla,Pue.,88,Jonotla,20.03038,-97.574905
21,Puebla,Pue.,89,Jopala,20.1628,-97.69292
21,Puebla,Pue.,90,Juan C. Bonilla,19.110695,-98.329033
21,Puebla,Pue.,91,Juan Galindo,20.212083,-98.002142
21,Puebla,Pue.,92,Juan N. Méndez,18.540004,-97.77229
21,Puebla,Pue.,93,Lafragua,19.296378,-97.298953
21,Puebla,Pue.,94,Libres,19.464679,-97.687734
21,Puebla,Pue.,95,La Magdalena Tlatlauquitepec,18.75852,-98.100701
21,Puebla,Pue.,96,Mazapiltepec de Juárez,19.119264,-97.703501
21,Puebla,Pue.,97,Mixtla,18.903035,-97.895332
21,Puebla,Pue.,98,Molcaxac,18.737901,-97.911859
21,Puebla,Pue.,99,Cañada Morelos,18.736994,-97.422096
21,Puebla,Pue.,100,Naupan,20.228472,-98.109733
21,Puebla,Pue.,101,Nauzontla,19.959038,-97.60312
21,Puebla,Pue.,102,Nealtican,19.050947,-98.42773
21,Puebla,Pue.,103,Nicolás Bravo,18.613223,-97.305659
21,Puebla,Pue.,104,Nopalucan,19.216029,-97.823538
21,Puebla,Pue.,105,Ocotepec,19.555474,-97.649128
21,Puebla,Pue.,106,Ocoyucan,18.976823,-98.30243
21,Puebla,Pue.,107,Olintla,20.10175,-97.684695
21,Puebla,Pue.,108,Oriental,19.375803,-97.619351
21,Puebla,Pue.,109,Pahuatlán,20.275726,-98.14991
21,Puebla,Pue.,110,Palmar de Bravo,18.835926,-97.547507
21,Puebla,Pue.,111,Pantepec,20.52182,-97.938491
21,Puebla,Pue.,112,Petlalcingo,18.082201,-97.917848
21,Puebla,Pue.,113,Piaxtla,18.198756,-98.260145
21,Puebla,Pue.,114,Puebla,19.04399,-98.197495
21,Puebla,Pue.,115,Quecholac,18.955063,-97.660449
21,Puebla,Pue.,116,Quimixtlán,19.253262,-97.135678
21,Puebla,Pue.,117,Rafael Lara Grajales,19.225384,-97.804551
21,Puebla,Pue.,118,Los Reyes de Juárez,18.946788,-97.813104
21,Puebla,Pue.,119,San Andrés Cholula,19.050944,-98.300656
21,Puebla,Pue.,120,San Antonio Cañada,18.497338,-97.290001
21,Puebla,Pue.,121,San Diego la Mesa Tochimiltzingo,18.809587,-98.331403
21,Puebla,Pue.,122,San Felipe Teotlalcingo,19.235725,-98.495455
21,Puebla,Pue.,123,San Felipe Tepatlán,20.091336,-97.796168
21,Puebla,Pue.,124,San Gabriel Chilac,18.326273,-97.347982
21,Puebla,Pue.,125,San Gregorio Atzompa,19.026686,-98.345766
21,Puebla,Pue.,126,San Jerónimo Tecuanipan,19.014412,-98.400957
21,Puebla,Pue.,127,San Jerónimo Xayacatlán,18.221269,-97.914337
21,Puebla,Pue.,128,San José Chiapa,19.242071,-97.768833
21,Puebla,Pue.,129,San José Miahuatlán,18.290238,-97.287655
21,Puebla,Pue.,130,San Juan Atenco,19.089913,-97.540916
21,Puebla,Pue.,131,San Juan Atzompa,18.746094,-98.024315
21,Puebla,Pue.,132,San Martín Texmelucan,19.282908,-98.435516
21,Puebla,Pue.,133,San Martín Totoltepec,18.649203,-98.346401
21,Puebla,Pue.,134,San Matías Tlalancaleca,19.324427,-98.498163
21,Puebla,Pue.,135,San Miguel Ixitlán,17.999518,-97.773424
21,Puebla,Pue.,136,San Miguel Xoxtla,19.168303,-98.309699
21,Puebla,Pue.,137,San Nicolás Buenos Aires,19.161897,-97.548412
21,Puebla,Pue.,138,San Nicolás de los Ranchos,19.072589,-98.485697
21,Puebla,Pue.,139,San Pablo Anicano,18.124454,-98.084033
21,Puebla,Pue.,140,San Pedro Cholula,19.062484,-98.307506
21,Puebla,Pue.,141,San Pedro Yeloixtlahuaca,18.117105,-98.078099
21,Puebla,Pue.,142,San Salvador el Seco,19.134745,-97.64275
21,Puebla,Pue.,143,San Salvador el Verde,19.269021,-98.517166
21,Puebla,Pue.,144,San Salvador Huixcolotla,18.92061,-97.771789
21,Puebla,Pue.,145,San Sebastián Tlacotepec,18.404646,-96.85061
21,Puebla,Pue.,146,Santa Catarina Tlaltempan,18.614263,-98.0799
21,Puebla,Pue.,147,Santa Inés Ahuatempan,18.412718,-98.017696
21,Puebla,Pue.,148,Santa Isabel Cholula,18.994574,-98.379239
21,Puebla,Pue.,149,Santiago Miahuatlán,18.553155,-97.441853
21,Puebla,Pue.,150,Huehuetlán el Grande,18.738306,-98.167911
21,Puebla,Pue.,151,Santo Tomás Hueyotlipan,18.891089,-97.867231
21,Puebla,Pue.,152,Soltepec,19.119228,-97.708445
21,Puebla,Pue.,153,Tecali de Herrera,18.901033,-97.969136
21,Puebla,Pue.,154,Tecamachalco,18.884692,-97.728416
21,Puebla,Pue.,155,Tecomatlán,18.11096,-98.314373
21,Puebla,Pue.,156,Tehuacán,18.462184,-97.391999
21,Puebla,Pue.,157,Tehuitzingo,18.331714,-98.276126
21,Puebla,Pue.,158,Tenampulco,20.171229,-97.405467
21,Puebla,Pue.,159,Teopantlán,18.713259,-98.262371
21,Puebla,Pue.,160,Teotlalco,18.469623,-98.778269
21,Puebla,Pue.,161,Tepanco de López,18.555069,-97.561498
